name,lat,lng
Ordino,42.55623,1.53319
les Escaldes,42.507290000000005,1.53414
la Massana,42.544990000000006,1.51483
Encamp,42.53474,1.5801399999999999
Canillo,42.5676,1.59756
Andorra la Vella,42.50779,1.52109
Umm al Qaywayn,25.564729999999997,55.55517
Ras al-Khaimah,25.78953,55.9432
Muzayri‘,23.14355,53.7881
Khawr Fakkān,25.33132,56.34199
Dubai,25.0657,55.17128
Dibba Al-Fujairah,25.59246,56.261759999999995
Dibba Al-Hisn,25.61955,56.272909999999996
Sharjah,25.33737,55.41206
Ar Ruways,24.11028,52.73056
Al Fujayrah,25.116410000000002,56.341409999999996
Al Ain,24.191670000000002,55.76056
Ajman,25.41111,55.43504
Adh Dhayd,25.288120000000003,55.881569999999996
Abu Dhabi,24.46667,54.36666999999999
Kuhsān,34.653890000000004,61.19778
Tukzār,35.94831,66.42132
Zindah Jān,34.34264,61.74675
Zarghūn Shahr,32.84734,68.44573000000001
Zaṟah Sharan,33.146409999999996,68.79213
Zaranj,30.95962,61.860369999999996
Yangī Qal‘ah,37.465720000000005,69.61131
Tīr Pul,34.59431,61.26895
Tarinkot,32.629979999999996,65.87805999999999
Taloqan,36.73605,69.53451
Tagāw-Bāy,35.69941,66.06164
Tagāb,34.85501,69.64917
Shīnḏanḏ,33.30294,62.1474
Shibirghān,36.66757,65.7529
Shahrak,34.10737,64.3052
Sidqābād,35.02298,69.35112
Sar-e Pul,36.21544,65.93249
Sangīn,32.07275,64.8359
Sang-e Chārak,35.84972,66.43694
Aībak,36.26468,68.01550999999999
Rūdbār,30.15,62.6
Rustāq,37.12604,69.83045
Qarqīn,37.41853,66.04358
Qarchī Gak,37.03999,66.78891
Qarāwul,37.219590000000004,68.7802
Qarah Bāgh,34.94023,61.775890000000004
Qala i Naw,34.98735,63.12891
Qal‘ah-ye Shahr,35.547290000000004,65.5676
Qalāt,32.10575,66.90833
Pārūn,35.42064,70.92260999999999
Pul-e Khumrī,35.94458,68.71512
Pul-e ‘Alam,33.995290000000004,69.02274
Panjāb,34.38795,67.02327
Paghmān,34.58787,68.95091
Uruzgān,32.92775,66.63253
Nīlī,33.721779999999995,66.13023000000001
Nahrīn,36.0649,69.13343
Mīr Bachah Kōṯ,34.749990000000004,69.11899
Mīrābād,30.43624,61.8383
Maymana,35.92139,64.78361
Mehtar Lām,34.67139,70.20944
Mazār-e Sharīf,36.70904,67.11086999999999
Lashkar Gāh,31.59382,64.37161
Larkird,35.48936,66.66409
Kushk,33.29565,61.95221
Kunduz,36.72895,68.857
Khōst,33.33951,69.92041
Khulm,36.697359999999996,67.69826
Khāsh,31.529190000000003,62.79055
Khandūd,36.95127,72.318
Khanabad,36.6825,69.11556
Karukh,34.48108,62.5863
Kandahār,31.61332,65.71013
Kabul,34.52813,69.17233
Jurm,36.86477,70.83421
Jalālābād,34.42647,70.45153
Jabal os Saraj,35.11833,69.23778
Herāt,34.34817,62.19967
Ghormach,35.73062,63.78264
Ghazni,33.553909999999995,68.42096
Gereshk,31.820890000000002,64.57005
Gardēz,33.59744,69.22592
Fayzabad,37.116640000000004,70.58001999999999
Farkhār,36.57288,69.85783
Farah,32.37451,62.11638000000001
Kafir Qala,34.66667,61.066669999999995
Imām Şāḩib,37.18897,68.93644
Dasht-e Archī,37.13333,69.16667
Darzāb,35.97744,65.37828
Markaz-e Ḩukūmat-e Darwēshān,31.132309999999997,64.1934
Chīras,35.416740000000004,65.98234000000001
Charikar,35.01361,69.17139
Chahār Burj,34.24475,62.19165
Fayrōz Kōh,34.51952,65.25093000000001
Bāsawul,34.24749,70.87218
Barakī Barak,33.96744,68.9492
Bāmyān,34.82156,67.82734
Balkh,36.75635,66.8972
Baghlān,36.13068,68.70829
Ḩukūmatī Azrah,34.17355,69.64573
Ārt Khwājah,37.08571,69.47958
Āsmār,35.03333,71.35809
Ashkāsham,36.68333,71.53333
Asadābād,34.87311,71.14697
Andkhōy,36.95293,65.12376
Anār Darah,32.7587,61.653969999999994
‘Alāqahdārī Dīshū,30.432059999999996,63.298019999999994
Bāzārak,35.31292,69.51519
Maydanshakhr,34.39561,68.86618
Markaz-e Woluswalī-ye Āchīn,34.12583,70.70778
Cool űrhajó,34.26545,67.34515999999999
Sharan,33.17568,68.73045
Saint John’s,17.11717,-61.84573
Piggotts,17.116670000000003,-61.8
Parham,17.09682,-61.77046
Falmouth,17.02741,-61.78136
Codrington,17.633329999999997,-61.833330000000004
Bolands,17.06565,-61.87466
The Valley,18.21704,-63.05783
Sarandë,39.87556,20.00528
Tepelenë,40.29583,20.019170000000003
Poliçan,40.61222,20.09806
Peshkopi,41.685,20.42889
Përmet,40.23361,20.351670000000002
Kukës,42.07694,20.42194
Korçë,40.61861,20.780829999999998
Gramsh,40.86972,20.18444
Gjirokastër,40.075829999999996,20.13889
Ersekë,40.33778,20.67889
Elbasan,41.1125,20.08222
Çorovodë,40.50417,20.227220000000003
Burrel,41.610279999999996,20.00889
Bulqizë,41.49167,20.22194
Bilisht,40.6275,20.99
Librazhd-Qendër,41.196940000000005,20.33556
Vlorë,40.46667,19.489720000000002
Tirana,41.3275,19.81889
Shkodër,42.06828,19.51258
Shijak,41.34556,19.567220000000002
Selenicë,40.530559999999994,19.63583
Rrogozhinë,41.07639,19.66528
Rrëshen,41.7675,19.87556
Roskovec,40.7375,19.70222
Pukë,42.04444,19.899720000000002
Peqin,41.04611,19.75111
Patos Fshat,40.64278,19.65083
Mamurras,41.5775,19.692220000000002
Lushnjë,40.94194,19.705
Lezhë,41.783609999999996,19.64361
Laç,41.63556,19.713060000000002
Kuçovë,40.80028,19.91667
Krujë,41.509170000000005,19.79278
Kavajë,41.185559999999995,19.55694
Kamëz,41.38167,19.760279999999998
Fushë-Krujë,41.47833,19.717779999999998
Fier-Çifçi,40.71667,19.566670000000002
Fier,40.723890000000004,19.55611
Durrës,41.32306,19.44139
Cërrik,41.03167,19.97583
Berat,40.70583,19.95222
Ballsh,40.598890000000004,19.734720000000003
Yeghegnadzor,39.76389,45.332390000000004
Vedi,39.91421,44.72217
Vayk’,39.6889,45.46668
Kapan,39.20755,46.40576
Goris,39.512879999999996,46.338159999999995
Hats’avan,39.46405,45.97047
Artashat,39.96144,44.544470000000004
Ararat,39.83166,44.70489
Yerevan,40.18111,44.51361
Ejmiatsin,40.16557,44.29462
Yeghvard,40.32053,44.481390000000005
Vardenis,40.18272,45.7311
Vardenik,40.13348,45.44311
Tashir,41.12072,44.284620000000004
Spitak,40.832209999999996,44.267309999999995
Sevan,40.5484,44.948679999999996
Sarukhan,40.29053,45.130590000000005
Hoktember,40.132059999999996,44.00969
Noyemberyan,41.17244,44.99917
Noratus,40.37547,45.17718
Nerk’in Getashen,40.14172,45.27087
Metsamor,40.07302,44.28962
Masis,40.06762,44.43591
Martuni,40.13892,45.305479999999996
Vanadzor,40.804559999999995,44.4939
Karanlukh,40.104440000000004,45.28972
Gavarr,40.35398,45.12386
Ijevan,40.87877,45.148509999999995
Hrazdan,40.497479999999996,44.7662
Armavir,40.15446,44.03815
Gyumri,40.7942,43.845279999999995
Garrni,40.11931,44.73442
Dilijan,40.74103,44.863620000000004
Chambarak,40.59655,45.35498
Byureghavan,40.31485,44.593959999999996
Berd,40.88135,45.38901
Ashtarak,40.2991,44.36204
Aparan,40.59323,44.3589
Alaverdi,41.09766,44.673159999999996
Akhuryan,40.78003,43.90027
Abovyan,40.26741,44.62656
Saurimo,-9.66078,20.39155
Lucapa,-8.41915,20.74466
Luau,-10.70727,22.22466
Léua,-11.65,20.45
Uíge,-7.608739999999999,15.06131
Soio,-6.1349,12.36894
Nzeto,-7.231160000000001,12.8666
N’dalatando,-9.29782,14.911620000000001
Mbanza Congo,-6.26703,14.2401
Malanje,-9.54015,16.34096
Luanda,-8.83682,13.23432
Caxito,-8.57848,13.66425
Camabatela,-8.18812,15.37495
Cabinda,-5.55,12.2
Uacu Cungo,-11.356689999999999,15.117189999999999
Sumbe,-11.20605,13.84371
Quibala,-10.73366,14.97995
Ondjiva,-17.066670000000002,15.733329999999999
Namibe,-15.196110000000001,12.15222
Menongue,-14.6585,17.69099
Luena,-11.78333,19.91667
Lubango,-14.91717,13.4925
Longonjo,-12.90667,15.253329999999998
Lobito,-12.3644,13.536010000000001
Cuito,-12.38333,16.933329999999998
Huambo,-12.776110000000001,15.739170000000001
Chissamba,-12.16667,17.33333
Catumbela,-12.430019999999999,13.54677
Catabola,-12.15,17.28333
Camacupa,-12.01667,17.48333
Caluquembe,-13.78333,14.683329999999998
Caconda,-13.733329999999999,15.066670000000002
Caála,-12.8525,15.56056
Benguela,-12.576260000000001,13.405470000000001
Chela,-12.302610000000001,15.43358
Zárate,-34.09814,-59.028580000000005
Villa Ocampo,-28.48752,-59.35515
Villa María Grande,-31.66565,-59.901819999999994
Villa Lugano,-34.67907,-58.47263
Villa Hernandarias,-31.231009999999998,-59.985
Villaguay,-31.8653,-59.02689
Villa Gesell,-37.263940000000005,-56.973040000000005
Villa Elisa,-32.1632,-58.400819999999996
Veinticinco de Mayo,-27.376790000000003,-54.74312
Urdinarrain,-32.68573,-58.89323
Tigre,-34.42603,-58.57962
Tandil,-37.321670000000005,-59.13316
San Vicente,-26.616670000000003,-54.13333000000001
Santo Tomé,-28.549390000000002,-56.040769999999995
Santo Pipó,-27.14132,-55.408669999999994
Santa Rosa,-28.26318,-58.11891
Santa Lucía,-28.98746,-59.102869999999996
Santa Elena,-30.94768,-59.78696
San Salvador,-31.62487,-58.50524
San Pedro,-26.62207,-54.108419999999995
San Miguel,-27.99585,-57.58964
San Luis del Palmar,-27.5079,-58.55454
San Lorenzo,-28.133059999999997,-58.76733
San José de Feliciano,-30.384520000000002,-58.75167
San José,-27.769790000000004,-55.7826
San Javier,-30.577809999999996,-59.9317
San Isidro,-34.47145,-58.50776
San Clemente del Tuyú,-36.35694,-56.72351
Saladas,-28.253840000000004,-58.62591
Rosario del Tala,-32.302859999999995,-59.14545
Retiro,-34.58333,-58.38333000000001
Resistencia,-27.460559999999997,-58.98389
Reconquista,-29.15,-59.65
Quilmes,-34.72418,-58.25265
Puerto Vilelas,-27.51414,-58.93906
Puerto Tirol,-27.37218,-59.08206
Puerto Rico,-26.79598,-55.02401999999999
Puerto Piray,-26.46779,-54.71476
Puerto Libertad,-25.91641,-54.62089
Puerto Iguazú,-25.599120000000003,-54.57355
Puerto Esperanza,-26.01517,-54.67306
Puerto Eldorado,-26.40843,-54.694630000000004
Presidencia de la Plaza,-27.00147,-59.84243000000001
Posadas,-27.367079999999998,-55.896080000000005
Pontevedra,-34.74974,-58.686969999999995
Pirané,-25.73239,-59.10879
Perugorría,-29.34132,-58.61059
Paso de los Libres,-29.712509999999998,-57.087709999999994
Paso de la Patria,-27.31676,-58.57196999999999
Panambí,-27.72369,-54.91515
Pampa del Indio,-26.06468,-59.918980000000005
Palo Santo,-25.56332,-59.33781
Oberá,-27.487059999999996,-55.11994
Nuestra Señora del Rosario de Caa Catí,-27.75072,-57.62073
Necochea,-38.547259999999994,-58.73675
Morón,-34.65344,-58.61975
Monte Caseros,-30.253590000000003,-57.63626
Montecarlo,-26.5662,-54.757
Mocoretá,-30.618909999999996,-57.963440000000006
Mercedes,-34.65145,-59.43068
Mercedes,-29.18416,-58.07519
Mburucuyá,-28.04532,-58.22835
Margarita Belén,-27.2616,-58.972190000000005
Mar del Plata,-38.00228,-57.55754
Malabrigo,-29.346359999999997,-59.96957
Maciá,-32.1722,-59.399469999999994
Luján,-34.57028,-59.105
Las Toscas,-28.3529,-59.25795
Larroque,-33.03595,-59.00125
La Plata,-34.92145,-57.954530000000005
La Paz,-30.74485,-59.64566
La Leonesa,-27.03786,-58.703469999999996
La Cruz,-29.174429999999997,-56.64326
Jardín América,-27.043459999999996,-55.226980000000005
Itatí,-27.270429999999998,-58.244580000000006
Ibarreta,-25.21438,-59.858509999999995
Gualeguaychú,-33.009370000000004,-58.517219999999995
Gualeguay,-33.14156,-59.30966
Goya,-29.14395,-59.2651
Gobernador Roca,-27.186359999999997,-55.464330000000004
Gobernador Ingeniero Valentín Virasoro,-28.05,-56.03333000000001
General José de San Martín,-26.53743,-59.34158000000001
Garupá,-27.481709999999996,-55.829209999999996
Garuhapé,-26.81768,-54.95665
Formosa,-26.177529999999997,-58.17814
Fontana,-27.418129999999998,-59.02392
Federal,-30.95465,-58.78326
Federación,-31.00621,-57.89962
Esquina,-30.014440000000004,-59.527190000000004
El Soberbio,-27.298470000000002,-54.198769999999996
El Colorado,-26.30808,-59.37291
El Alcázar,-26.71459,-54.81523000000001
Dos de Mayo,-27.02277,-54.686690000000006
Dolores,-36.31321,-57.67918
Curuzú Cuatiá,-29.79171,-58.0546
Corrientes,-27.4806,-58.8341
Concordia,-31.39296,-58.02089
Concepción del Uruguay,-32.482490000000006,-58.23721999999999
Concepción de la Sierra,-27.983109999999996,-55.520309999999995
Comandante Fontana,-25.334529999999997,-59.68212
Colonia Wanda,-25.974079999999997,-54.428059999999995
Colonia Aurora,-27.47428,-54.524980000000006
Colegiales,-34.57365,-58.44924
Clorinda,-25.28481,-57.718509999999995
Chajarí,-30.75048,-57.97962
Cerro Azul,-27.6331,-55.4962
Capioví,-26.92998,-55.06084
Candelaria,-27.4595,-55.74536
Campo Viera,-27.383329999999997,-55.03333000000001
Campo Ramón,-27.46108,-55.019009999999994
Campo Grande,-27.2077,-54.979769999999995
Campana,-34.16874,-58.959140000000005
Buenos Aires,-34.61315,-58.377230000000004
Bovril,-31.34311,-59.445119999999996
Bernardo de Irigoyen,-26.2552,-53.64581
Barranqueras,-27.48132,-58.93925
Azul,-36.77698,-59.858540000000005
Avellaneda,-29.11761,-59.65834
Aristóbulo del Valle,-27.09625,-54.89626
Alvear,-29.096829999999997,-56.550430000000006
Alba Posse,-27.569779999999998,-54.68261999999999
Zapala,-38.899159999999995,-70.05442
Yuto,-23.643420000000003,-64.47194
Yerba Buena,-26.816670000000002,-65.31667
Yacimiento Río Turbio,-51.573209999999996,-72.3508
Villa Regina,-39.1,-67.06667
Villa Paula de Sarmiento,-31.4933,-68.53838
Villa Ojo de Agua,-29.50003,-63.693769999999994
Villa Nueva,-32.43293,-63.24763000000001
Villa María,-32.407509999999995,-63.240159999999996
Villa La Angostura,-40.76173,-71.64631
Villa Huidobro,-34.83826,-64.58686
Villa General Belgrano,-31.97542,-64.5559
Villa Dolores,-31.94585,-65.18958
Villa de Soto,-30.85523,-64.99947
Villa del Totoral,-30.816670000000002,-63.71666999999999
Villa Constitución,-33.227779999999996,-60.3297
Chañar Ladeado,-33.32524,-62.038309999999996
Villa Carlos Paz,-31.42414,-64.49778
Villa Cañás,-34.00565,-61.607569999999996
Villa Berthet,-27.29174,-60.41263000000001
Villa Ángela,-27.573829999999997,-60.71526
Villa Allende,-31.29458,-64.29538000000001
Viedma,-40.81345,-62.996680000000005
Vicuña Mackenna,-33.91965,-64.39215
Victorica,-36.21505,-65.43585999999999
Victoria,-32.61841,-60.15478
Viale,-31.867820000000002,-60.00722
Vera,-29.4593,-60.21261
Venado Tuerto,-33.74556,-61.96885
Veinticinco de Mayo,-37.7741,-67.71638
Veinticinco de Mayo,-35.4323,-60.172709999999995
Valle Hermoso,-31.11732,-64.48084
Ushuaia,-54.8,-68.3
Unquillo,-31.230729999999998,-64.31615
Trevelin,-43.0858,-71.46386
Tres Isletas,-26.340670000000003,-60.432069999999996
Tres Arroyos,-38.373940000000005,-60.27978
Trelew,-43.24895,-65.30505
Trancas,-26.21575,-65.28492
Totoras,-32.5844,-61.168519999999994
Tostado,-29.232020000000002,-61.769169999999995
Tinogasta,-28.063190000000002,-67.56488
Tilisarao,-32.73292,-65.29109
Tilcara,-23.57757,-65.3509
Termas de Río Hondo,-27.49362,-64.85972
Tartagal,-22.516370000000002,-63.80131
Tancacha,-32.24309,-63.9807
Tafí Viejo,-26.73201,-65.25921
Taco Pozo,-25.616670000000003,-63.28333000000001
Suncho Corral,-27.93357,-63.42938
Sunchales,-30.94404,-61.56148
Simoca,-27.26272,-65.35647
Sierra Grande,-41.60603,-65.35574
Senillosa,-39.0,-68.41667
Sastre,-31.76762,-61.828869999999995
Sarmiento,-45.58815,-69.06996
Santo Tomé,-31.662740000000003,-60.7653
Santiago del Estero,-27.795109999999998,-64.26149000000001
Santa Sylvina,-27.83261,-61.13746999999999
Santa Rosa de Río Primero,-31.152309999999996,-63.40191
Santa Rosa de Calamuchita,-32.06905,-64.53631
Santa Rosa,-36.61667,-64.28333
Santa Lucía,-31.53987,-68.49503
Santa Fe de la Vera Cruz,-31.633329999999997,-60.7
San Salvador de Jujuy,-24.194570000000002,-65.29711999999999
San Ramón de la Nueva Orán,-23.13705,-64.32426
San Rafael,-34.61772,-68.33006999999999
San Pedro,-24.231270000000002,-64.86614
San Nicolás de los Arroyos,-33.33578,-60.22523
San Miguel de Tucumán,-26.824140000000003,-65.2226
San Martín de los Andes,-40.15789,-71.35337
San Martín,-33.08103,-68.46814
San Martín,-31.429570000000002,-68.50065
San Luis,-33.29501,-66.33563000000001
San Justo,-30.78913,-60.59189
San Juan,-31.5375,-68.53639
San José de Jáchal,-30.24057,-68.74693
San Jorge,-31.896179999999998,-61.859840000000005
San Francisco,-31.427970000000002,-62.08266
San Fernando del Valle de Catamarca,-28.46957,-65.78524
San Cristóbal,-30.31053,-61.23724
San Carlos Centro,-31.728640000000002,-61.091919999999995
San Bernardo,-27.28782,-60.71252
San Benito,-31.78371,-60.441559999999996
San Antonio Oeste,-40.73193,-64.94769000000001
San Agustín de Valle Fértil,-30.63353,-67.46821
Sampacho,-33.3839,-64.72211
Salta,-24.7859,-65.41166
Salsipuedes,-31.13725,-64.29589
Rufino,-34.26827,-62.712619999999994
Rosario,-32.94682,-60.63932
Roldán,-32.89846,-60.90681
Río Tercero,-32.17301,-64.11405
Río Segundo,-31.6526,-63.9099
Río Gallegos,-51.622609999999995,-69.21813
Río Cuarto,-33.13067,-64.34992
Río Ceballos,-31.164859999999997,-64.32240999999999
Recreo,-31.490759999999998,-60.73299
Recreo,-29.281840000000003,-65.06096
Realicó,-35.03658,-64.2447
Rawson,-43.30016,-65.10228000000001
Rafaela,-31.250329999999998,-61.4867
Rada Tilly,-45.93333,-67.53333
Quitilipi,-26.86913,-60.21683
Quimilí,-27.633329999999997,-62.416669999999996
Punta Alta,-38.87588,-62.07359
San Julián,-49.30554,-67.72743
Puerto Madryn,-42.7692,-65.03851
Puerto Deseado,-47.75034,-65.89381999999999
Presidencia Roque Sáenz Peña,-26.785220000000002,-60.438759999999995
Pozo del Molle,-32.0186,-62.91984
Pocito,-31.683329999999998,-68.58333
Plottier,-38.96667,-68.23333000000001
Plaza Huincul,-38.925979999999996,-69.20863
Pilar,-31.6789,-63.87964
Pico Truncado,-46.7949,-67.95730999999999
Pergamino,-33.88995,-60.57357
Pérez,-32.99835,-60.76791
Paraná,-31.73197,-60.5238
Pampa del Infierno,-26.50517,-61.17436
Palpalá,-24.25647,-65.21163
Palma Sola,-23.96336,-64.29871999999999
Oncativo,-31.913529999999998,-63.68201
Oliva,-32.041579999999996,-63.56978
Olavarría,-36.892720000000004,-60.322540000000004
Nueve de Julio,-35.44437,-60.88313
Nueve de Julio,-31.669140000000002,-68.39023
Neuquén,-38.951609999999995,-68.0591
Morteros,-30.711640000000003,-61.998619999999995
Monteros,-27.167409999999997,-65.49831999999999
Monte Maíz,-33.20462,-62.60085
Monte Cristo,-31.343120000000003,-63.94436999999999
Monte Buey,-32.91642,-62.45669
Mina Clavero,-31.721009999999996,-65.00619
Merlo,-32.34288,-65.01396
Mendoza,-32.890840000000004,-68.82717
Marcos Juárez,-32.6978,-62.106719999999996
Malvinas Argentinas,-31.383329999999997,-64.06667
Malagueño,-31.46467,-64.3584
Machagai,-26.926140000000004,-60.04955
Los Frentones,-26.4077,-61.413669999999996
Los Altos,-28.04845,-65.49945
Lincoln,-34.86649,-61.5302
Libertador General San Martín,-23.80644,-64.78757
Leones,-32.66174,-62.296780000000005
La Toma,-33.05258,-65.62385
Las Varillas,-31.87208,-62.71946
Las Rosas,-32.47661,-61.58041
Las Parejas,-32.684779999999996,-61.516369999999995
Las Lomitas,-24.70955,-60.593030000000006
Las Lajitas,-24.683329999999998,-64.25
Las Higueras,-33.09231,-64.28899
Las Heras,-46.54186,-68.93593
Las Breñas,-27.08966,-61.08161
La Rioja,-29.41105,-66.85067
La Quiaca,-22.10236,-65.59299
Lamarque,-39.42304,-65.70208000000001
Laguna Paiva,-31.30391,-60.65894
Laguna Larga,-31.77652,-63.80104
La Falda,-31.088409999999996,-64.48987
La Cumbre,-30.98201,-64.49139
La Cocha,-27.77729,-65.57035
La Carlota,-33.41993,-63.29769
La Calera,-31.343770000000003,-64.33529
Laboulaye,-34.12662,-63.39119
Laborde,-33.15319,-62.856609999999996
Justo Daract,-33.8594,-65.18276999999999
Justiniano Posse,-32.88411,-62.67788
Junín de los Andes,-39.95043,-71.06936
Junín,-34.58382,-60.94331999999999
Joaquín V. González,-25.08333,-64.18333
Jesús María,-30.98153,-64.09424
Intendente Alvear,-35.23383,-63.59205
Ingenio La Esperanza,-24.22554,-64.83896
Ingeniero Luis A. Huergo,-39.08333,-67.23333000000001
Ingeniero Jacobacci,-41.3292,-69.55015
Ingeniero Guillermo N. Juárez,-23.9,-61.85
Icaño,-28.919340000000002,-65.32817
Humahuaca,-23.20544,-65.35048
Huinca Renancó,-34.840379999999996,-64.3758
Huillapima,-28.72533,-65.9787
Huerta Grande,-31.07524,-64.49063000000001
Hernando,-32.42657,-63.73333
Hermoso Campo,-27.608159999999998,-61.344409999999996
Guatraché,-37.667759999999994,-63.53021
Graneros,-27.649340000000002,-65.4383
Granadero Baigorria,-32.85683,-60.71754
Gobernador Gálvez,-33.030159999999995,-60.64045
General Roca,-39.03333,-67.58333
General Ramírez,-32.17601,-60.200790000000005
General Pinedo,-27.316670000000002,-61.28333000000001
General Pico,-35.656620000000004,-63.75682
General Levalle,-34.014720000000004,-63.924130000000005
General Fernández Oro,-38.95297,-67.92489
General Enrique Mosconi,-22.595879999999998,-63.81255
General Conesa,-40.1,-64.43333
General Cabrera,-32.81313,-63.87243
General Acha,-37.376979999999996,-64.60431
Gálvez,-32.029270000000004,-61.221030000000006
Gaimán,-43.2897,-65.4929
Funes,-32.91568,-60.80995
Fray Luis Beltrán,-39.31667,-65.76666999999999
Fray Luis A. Beltrán,-32.79122,-60.728190000000005
Fraile Pintado,-23.94079,-64.79943
Firmat,-33.45937,-61.4832
Fiambalá,-27.68705,-67.6149
Famaillá,-27.054129999999997,-65.40329
Esquel,-42.91147,-71.31947
Esperanza,-31.4488,-60.93173
Embarcación,-23.21003,-64.09965
Embalse,-32.18,-64.41809
El Trébol,-32.2008,-61.7014
El Quebrachal,-25.28333,-64.06667
El Galpón,-25.380689999999998,-64.65259
El Carril,-25.0741,-65.49174000000001
El Calafate,-50.34075,-72.27682
El Bolsón,-41.96051,-71.53336
Eduardo Castex,-35.915009999999995,-64.29448000000001
Diamante,-32.06641,-60.638369999999995
Devoto,-31.40431,-62.306340000000006
Despeñaderos,-31.816259999999996,-64.28989
Deán Funes,-30.42036,-64.34984
Cutral-Có,-38.93424,-69.23052
Cruz del Eje,-30.726440000000004,-64.80386999999999
Cruz Alta,-33.00887,-61.80746
Crespo,-32.028729999999996,-60.306580000000004
Cosquín,-31.245079999999998,-64.46563
Corzuela,-26.953740000000003,-60.969280000000005
Corral de Bustos,-33.28205,-62.184630000000006
Coronel Suárez,-37.45467,-61.93343
Coronel Moldes,-33.6227,-64.59711
Coronel Du Graty,-27.68038,-60.91461999999999
Coronel Dorrego,-38.71867,-61.287330000000004
Coronda,-31.97263,-60.919830000000005
Córdoba,-31.4135,-64.18105
Concepción del Bermejo,-26.599259999999997,-60.946169999999995
Comodoro Rivadavia,-45.864129999999996,-67.49656
Clodomira,-27.5744,-64.13108000000001
Cipolletti,-38.93392,-67.99032
Cinco Saltos,-38.82225,-68.06293000000001
Chos Malal,-37.37809,-70.27085
Choele Choel,-39.26667,-65.68333
Chivilcoy,-34.89566,-60.01667
Chimbas,-31.48333,-68.53333
Chilecito,-29.16195,-67.4974
Chicoana,-25.10088,-65.5331
Charata,-27.21438,-61.18795
Chamical,-30.360020000000002,-66.31399
Chacabuco,-34.64167,-60.473890000000004
Cervantes,-39.05,-67.38333
Ceres,-29.881,-61.945040000000006
Centenario,-38.82955,-68.1318
Caucete,-31.651790000000002,-68.28105
Catriel,-37.87907,-67.7956
Castelli,-25.94679,-60.61946999999999
Casilda,-33.04417,-61.16806
Carcarañá,-32.856790000000004,-61.15331
Capitán Bermúdez,-32.82262,-60.71852
Capilla del Monte,-30.860879999999998,-64.52515
Capayán,-28.76105,-66.05025
Canals,-33.56542,-62.889269999999996
Cañada de Gómez,-32.816359999999996,-61.39493
Campo Largo,-26.80077,-60.84215
Campo Gallo,-26.58333,-62.85
Calingasta,-31.330840000000002,-69.40783
Calilegua,-23.77368,-64.77002
Caleta Olivia,-46.43929,-67.52814000000001
Calchaquí,-29.88767,-60.28697
Caimancito,-23.74069,-64.5937
Cafayate,-26.072860000000002,-65.97766
Brinkmann,-30.865890000000004,-62.03742
Berrotarán,-32.451,-64.38866999999999
Beltrán,-27.82913,-64.06098
Bell Ville,-32.62591,-62.68873000000001
Bella Vista,-27.034240000000004,-65.30196
Balnearia,-31.0088,-62.66733000000001
Bahía Blanca,-38.719590000000004,-62.27243000000001
Aviá Terai,-26.68532,-60.7292
Arroyo Seco,-33.15489,-60.508630000000004
Arroyito,-31.42022,-63.050019999999996
Armstrong,-32.78215,-61.602219999999996
Arias,-33.64411,-62.402719999999995
Arauco,-28.5805,-66.79438
Apolinario Saravia,-24.432760000000002,-63.99535
Andalgalá,-27.60012,-66.31794000000001
Añatuya,-28.46064,-62.83472
Alta Gracia,-31.65292,-64.42826
Almafuerte,-32.19296,-64.25559
Allen,-38.97736,-67.82714
Alderetes,-26.816670000000002,-65.13333
Albardón,-31.43722,-68.52556
Aguilares,-27.4338,-65.61426999999999
Adelia María,-33.63152,-64.02096999999999
Abra Pampa,-22.720489999999998,-65.69697
Villa Santa Rita,-34.610820000000004,-58.481
Villa Mercedes,-33.675709999999995,-65.45783
La Punta,-33.183679999999995,-66.3127
San Carlos de Bariloche,-41.14557,-71.30821999999999
Río Turbio,-51.53587,-72.33673
Adrogué,-34.80041,-58.38384
Taulaga,-11.05528,-171.08833
Ta`ū,-14.23361,-169.51443999999998
Tāfuna,-14.33583,-170.72
Pago Pago,-14.27806,-170.7025
Neu-Guntramsdorf,48.0642,16.31573
Zwettl Stift,48.61667,15.2
Zistersdorf,48.53333,16.75
Zirl,47.28333,11.23333
Zeltweg,47.18333,14.75
Zell am See,47.325559999999996,12.79444
Ybbs an der Donau,48.16667,15.083329999999998
Wörgl,47.48333,12.06667
Wördern,48.333999999999996,16.210160000000002
Wolkersdorf im Weinviertel,48.38333,16.51667
Wolfurt,47.46667,9.75
Wolfsberg,46.840559999999996,14.844170000000002
Wilhelmsburg,48.105709999999995,15.60539
Wiener Neustadt,47.8,16.25
Wiener Neudorf,48.08278,16.31384
Vienna,48.208490000000005,16.37208
Wetzelsdorf,47.052929999999996,15.39923
Wernberg,46.61667,13.933329999999998
Wels,48.16667,14.03333
Weiz,47.21667,15.616670000000001
Weinzierl bei Krems,48.4,15.6
Wattens,47.28333,11.6
Waidhofen an der Ybbs,47.96004,14.773610000000001
Waidhofen an der Thaya,48.81667,15.28333
Vorchdorf,48.00388,13.921220000000002
Völs,47.25,11.33333
Völkermarkt,46.66222,14.63444
Voitsberg,47.03333,15.15
Vöcklabruck,48.01667,13.65
Villach,46.610279999999996,13.85583
Velden am Wörthersee,46.613009999999996,14.0413
Tulln,48.32829,16.05858
Trofaiach,47.42524,15.00681
Traun,48.22656,14.234589999999999
Traismauer,48.35,15.733329999999999
Traiskirchen,48.01485,16.29324
Timelkam,48.00394,13.6076
Thalgau,47.83333,13.25
Ternitz,47.71565,16.03575
Telfs,47.30707,11.06817
Tamsweg,47.12808,13.811020000000001
Strasswalchen,47.98333,13.25
Strasshof an der Nordbahn,48.31667,16.66667
Stockerau,48.38333,16.21667
Steyr,48.04274,14.421270000000002
Spittal an der Drau,46.8,13.5
Hall in Tirol,47.28333,11.51667
Sierning,48.04343,14.30935
Sieghartskirchen,48.255309999999994,16.01223
Seekirchen am Wallersee,47.9,13.133329999999999
Seeboden,46.81909,13.5143
Schwechat,48.13333,16.46667
Schwaz,47.351690000000005,11.710139999999999
Schrems,48.78333,15.066670000000002
Sankt Veit an der Glan,46.76806,14.36028
Sankt Valentin,48.16667,14.516670000000001
Sankt Pölten,48.2,15.633329999999999
Sankt Johann im Pongau,47.35,13.2
Sankt Andrä,46.76829,14.81991
Salzburg,47.799409999999995,13.043989999999999
Saalfelden am Steinernen Meer,47.426809999999996,12.847999999999999
Rum,47.28333,11.45
Rottenmann,47.51667,14.35
Ried im Innkreis,48.21123,13.48855
Reutte,47.48333,10.71667
Rankweil,47.27108,9.64308
Purkersdorf,48.20769,16.17539
Purgstall,48.058409999999995,15.13478
Pressbaum,48.18333,16.08333
Poysdorf,48.66667,16.633329999999997
Pottendorf,47.9,16.383329999999997
Pinkafeld,47.36667,16.116670000000003
Perg,48.25,14.633329999999999
Perchtoldsdorf,48.11935,16.266070000000003
Paternion,46.71417,13.63611
Pasching,48.25931,14.20369
Oberwart,47.28971,16.20595
Neusiedl am See,47.949009999999994,16.8417
Neunkirchen,47.72096,16.08107
Nenzing,47.18436,9.70539
Mürzzuschlag,47.6,15.683329999999998
Mödling,48.08605,16.28921
Mittersill,47.28333,12.48333
Mistelbach,48.57,16.57667
Micheldorf in Oberösterreich,47.87764,14.13357
Melk,48.22737,15.33186
Mattersburg,47.73333,16.4
Matrei in Osttirol,47.0,12.53333
Sankt Florian,48.20568,14.37836
Mariatrost,47.1,15.5
Maria Enzersdorf,48.1,16.28333
Marchtrenk,48.18333,14.116670000000001
Lustenau,47.42642,9.65851
Lochau,47.53333,9.75
Linz,48.30639,14.28611
Liezen,47.56667,14.233329999999999
Lienz,46.8289,12.76903
Leonding,48.27965,14.2533
Leoben,47.3765,15.091439999999999
Lenzing,47.973259999999996,13.608460000000001
Leibnitz,46.78161,15.53836
Lauterach,47.483059999999995,9.73306
Langenzersdorf,48.3,16.35
Langenlois,48.46667,15.666670000000002
Landeck,47.13988,10.56593
Laakirchen,47.98188,13.821660000000001
Laa an der Thaya,48.71667,16.383329999999997
Kufstein,47.58333,12.16667
Kuchl,47.62647,13.1448
Krieglach,47.53333,15.55
Kremsmünster,48.0529,14.12919
Krems an der Donau,48.409209999999995,15.61415
Kottingbrunn,47.950959999999995,16.22715
Korneuburg,48.35,16.33333
Köflach,47.06667,15.083329999999998
Knittelfeld,47.21667,14.816670000000002
Klosterneuburg,48.305209999999995,16.32522
Klagenfurt am Wörthersee,46.62472,14.305279999999998
Kitzbühel,47.44637,12.39215
Kindberg,47.5,15.45
Kapfenberg,47.44458,15.29331
Judenburg,47.16667,14.666670000000002
Jenbach,47.391729999999995,11.77245
Innsbruck,47.26266,11.39454
Imst,47.24504,10.73974
Hörsching,48.22627,14.17786
Horn,48.66274,15.656629999999998
Hörbranz,47.55,9.75
Hopfgarten im Brixental,47.45,12.16667
Hollabrunn,48.55,16.08333
Hohenems,47.36667,9.683060000000001
Höchst,47.459340000000005,9.6405
Himberg,48.08333,16.433329999999998
Herzogenburg,48.28137,15.69431
Hermagor,46.62722,13.367220000000001
Hartberg,47.28333,15.96667
Hard,47.483059999999995,9.683060000000001
Hallein,47.68333,13.1
Hainburg an der Donau,48.14627,16.94504
Groß-Enzersdorf,48.20278,16.550829999999998
Grödig,47.73333,13.03333
Graz,47.06667,15.45
Gratkorn,47.13333,15.35
Götzis,47.333059999999996,9.63306
Gösting,47.097879999999996,15.397770000000001
Gmunden,47.91839,13.79933
Gmünd,48.7683,14.9808
Gloggnitz,47.67487,15.93893
Gleisdorf,47.10559,15.71011
Gerasdorf bei Wien,48.294470000000004,16.46765
Garsten,48.0224,14.407470000000002
Gänserndorf,48.33925,16.72016
Gallneukirchen,48.353629999999995,14.416039999999999
Fürstenfeld,47.05,16.08333
Frohnleiten,47.26667,15.316670000000002
Friesach,46.95528,14.405829999999998
Freistadt,48.51103,14.504529999999999
Frankenburg,48.06844,13.49065
Fohnsdorf,47.2,14.683329999999998
Ferlach,46.52694,14.30194
Feldkirchen in Kärnten,46.72368,14.0958
Feldkirchen an der Donau,48.345240000000004,14.05134
Feldkirch,47.233059999999995,9.6
Enns,48.21346,14.476120000000002
Engerwitzdorf,48.34507,14.442039999999999
Eisenstadt,47.84565,16.52327
Eisenerz,47.53333,14.883329999999999
Ebreichsdorf,47.95,16.4
Eberndorf,46.591390000000004,14.64361
Ebenthal,46.608059999999995,14.364170000000001
Ebensee,47.807159999999996,13.779000000000002
Ebbs,47.63333,12.21667
Dornbirn,47.41427,9.74195
Deutsch-Wagram,48.29972,16.566670000000002
Deutschlandsberg,46.81528,15.222220000000002
Bruck an der Mur,47.41667,15.28333
Bruck an der Leitha,48.01667,16.76667
Bregenz,47.50311,9.7471
Braunau am Inn,48.25628,13.04343
Bludenz,47.154759999999996,9.82255
Bischofshofen,47.41667,13.21667
Berndorf,47.94567,16.10973
Bergheim,47.83333,13.03333
Bad Vöslau,47.96533,16.21359
Bad Ischl,47.711090000000006,13.618929999999999
Bad Hofgastein,47.172740000000005,13.09871
Bad Goisern,47.642520000000005,13.61609
Bad Gastein,47.11547,13.134670000000002
Baden,48.00543,16.23264
Bad Aussee,47.60998,13.782429999999998
Asten,48.219409999999996,14.41784
Arnoldstein,46.54611,13.71
Ansfelden,48.20969,14.29004
Amstetten,48.1229,14.872060000000001
Altmünster,47.902190000000004,13.76415
Altach,47.35,9.65
Abtenau,47.56373,13.345989999999999
Absam,47.3,11.5
Finkenstein am Faaker See,46.56556,13.865279999999998
Attnang-Puchheim,48.00833,13.71667
Ansfelden,47.965,13.049439999999999
Whyalla,-33.03268,137.56483
Wembley,-31.933329999999998,115.8
Wanneroo,-31.75,115.8
Victor Harbor,-35.55042,138.62153999999998
Swan View,-31.883329999999997,116.05
Subiaco,-31.9485,115.8268
Spearwood,-32.105340000000005,115.77797
South Perth,-31.98333,115.86667
Seaton,-34.9,138.51667
Scarborough,-31.89578,115.76431000000001
Salisbury,-34.76667,138.63333
Safety Bay,-32.304629999999996,115.74213
Rockingham,-32.27682,115.72978
Prospect,-34.88241,138.5933
Port Pirie,-33.191759999999995,138.01746
Port Lincoln,-34.72625,135.87442
Port Hedland,-20.31215,118.61058999999999
Port Augusta West,-32.48611,137.75833
Port Augusta,-32.49597,137.77281000000002
Perth,-31.952240000000003,115.8614
Nuriootpa,-34.46825,138.99767
Northam,-31.64932,116.67423000000001
Newman,-23.35644,119.73553000000001
Nedlands,-31.981840000000002,115.8073
Murray Bridge,-35.119859999999996,139.27345
Mount Isa,-20.72523,139.49727
Mount Barker,-35.06667,138.86667
Mosman Park,-32.0,115.75
Morphett Vale,-35.13333,138.51667
Modbury,-34.83333,138.68333
McMinns Lagoon,-12.55397,131.11165
Maylands,-31.930970000000002,115.89486000000001
Margaret River,-33.9536,115.07391000000001
Mandurah,-32.5269,115.7217
Maddington,-32.05,115.98333000000001
Kwinana,-32.230129999999996,115.78128000000001
Kununurra,-15.778129999999999,128.74414
Kenwick,-32.03333,115.96667
Kelmscott,-32.124340000000004,116.0259
Katherine,-14.46517,132.26346999999998
Kalgoorlie,-30.746140000000004,121.4742
Ingle Farm,-34.83333,138.63333
Hope Valley,-34.83333,138.7
Happy Valley,-35.08333,138.53333
Grange,-34.902229999999996,138.49022
Gosnells,-32.080999999999996,116.0054
Golden Grove,-34.78333,138.73333
Geraldton,-28.77897,114.61458999999999
Gawler,-34.602509999999995,138.74902
Fremantle,-32.05,115.76666999999999
Findon,-34.9,138.53333
Esperance,-33.86013,121.88259
Darwin,-12.46113,130.84185
Cottesloe,-32.0,115.76666999999999
Collie,-33.36206,116.15616999999999
Carnarvon,-24.88073,113.6594
Campbelltown,-34.88333,138.66666999999998
Busselton,-33.65249,115.3455
Bunbury,-33.32711,115.64137
Broome,-17.955379999999998,122.23921999999999
Boulder,-30.782040000000002,121.4912
Bentley,-32.0,115.91667
Bassendean,-31.909059999999997,115.9437
Australind,-33.2792,115.71503999999999
Armadale,-32.14607,116.0093
Applecross,-32.01667,115.83333
Alice Springs,-23.69748,133.88362
Aldinga,-35.28333,138.48333
Albany,-35.0031,117.86595
Adelaide,-34.92866,138.59863
Eaton,-33.31664,115.70503000000001
Quinns Rocks,-31.673790000000004,115.70371999999999
East Fremantle,-32.03823,115.7676
Claremont,-31.979609999999997,115.7823
Bicton,-32.02778,115.78333
Attadale,-32.02489,115.802
Warnbro,-32.34017,115.7473
Mullaloo,-31.778959999999998,115.73676
Young,-34.3135,148.30106999999998
Yeppoon,-23.126829999999998,150.74406000000002
Yass,-34.84036,148.90986999999998
Yarrawonga,-36.01923,145.99973
Yarraville,-37.81667,144.9
Wynyard,-40.9897,145.72617
Wynnum,-27.44527,153.15813
Woodridge,-27.633329999999997,153.1
Wodonga,-36.121790000000004,146.88808999999998
Windsor,-37.85344,144.99241
Williamstown,-37.857,144.89768999999998
Werribee,-37.9,144.66666999999998
Wellington Point,-27.48333,153.25
Wellington,-32.55588,148.94508000000002
Watsonia,-37.71667,145.08333000000002
Warwick,-28.219009999999997,152.03438
Warrnambool,-38.38176,142.48799
Warrandyte,-37.75,145.23333
Warragul,-38.15912,145.93118
Wantirna South,-37.88333,145.21667
Wantirna,-37.85,145.21667
Wangaratta,-36.35846,146.32056
Wagga Wagga,-35.12577,147.35375
Victoria Point,-27.58329,153.31172
Vermont,-37.83616,145.19428
Urangan,-25.29214,152.90535
Upwey,-37.9,145.33333000000002
Upper Coomera,-27.9,153.3
Ulverstone,-41.16026,146.18242
Ulladulla,-35.35906,150.47247
Tumut,-35.30016,148.22505
Tullamarine,-37.70128,144.881
Truganina,-37.81667,144.75
Traralgon,-38.19528,146.5415
Townsville,-19.266389999999998,146.80569
Torquay,-25.28496,152.87886
Toowoomba,-27.56056,151.95386000000002
Toorak,-37.84165,145.01438000000002
Thornbury,-37.75,145.0
Thomastown,-37.68333,145.01667
Tewantin,-26.391040000000004,153.03432
Templestowe Lower,-37.76667,145.11667
Tarragindi,-27.53333,153.03333
Tarneit,-37.86667,144.66666999999998
Taree,-31.91099,152.45387
Tamworth,-31.09048,150.92905
Sydney,-33.86785,151.20731999999998
Sydenham,-37.7,144.76667
Swan Hill,-35.33781,143.5544
Surrey Hills,-37.81667,145.1
Surfers Paradise,-28.002740000000003,153.42999
Sunnybank,-27.58333,153.05
Sunbury,-37.577420000000004,144.72607
Strathpine,-27.304140000000004,152.98977
Port Stephens,-32.71314,152.06623000000002
Stawell,-37.05632,142.78088
Springvale South,-37.96667,145.15
Springvale,-37.94853,145.15274
Southport,-27.967240000000004,153.39796
South Melbourne,-37.83333,144.96667
South Grafton,-29.7076,152.92627
Somerville,-38.21667,145.16666999999998
Slacks Creek,-27.65,153.15
Singleton,-32.56742,151.16603
Shepparton,-36.38047,145.39866999999998
Sebastopol,-37.58532,143.83953
Seaford,-38.1,145.13333
Scoresby,-37.9,145.23333
Sale,-38.11095,147.06802
Saint Kilda,-37.8676,144.98099
Saint Albans,-37.73333,144.8
Rye,-38.36667,144.81667
Rutherford,-32.71667,151.53333
Rowville,-37.93333,145.23333
Rosebud,-38.35542,144.9068
Rosanna,-37.75,145.06667
Roma,-26.56741,148.78751
Rockhampton,-23.38032,150.50595
Riverstone,-33.68333,150.86667
Ringwood East,-37.81667,145.25
Richmond,-37.81819,145.00176000000002
Richmond,-33.59956,150.75142
Reservoir,-37.71667,145.0
Redlynch,-16.883329999999997,145.7
Red Hill,-20.316670000000002,148.5
Redfern,-33.892790000000005,151.20415
Rathmines,-33.037729999999996,151.58443
Queanbeyan,-35.354929999999996,149.232
Quakers Hill,-33.73333,150.88333
Pymble,-33.74386,151.14188000000001
Preston,-37.75,145.01667
Port Melbourne,-37.83961,144.94228
Port Macquarie,-31.430840000000003,152.90894
Portland,-38.3462,141.60257
Point Cook,-37.91482,144.75088
Penshurst,-33.96667,151.08333000000002
Penrith,-33.75,150.7
Pennant Hills,-33.737829999999995,151.07216
Pascoe Vale,-37.73333,144.93333
Parkville,-37.78333,144.95
Parkes,-33.1372,148.1759
Parkdale,-37.98333,145.06667
Palm Beach,-28.116940000000003,153.46584
Pakenham South,-38.13333,145.51667
Ormond,-37.9,145.03333
Orange,-33.283970000000004,149.10018
Oatley,-33.98004,151.07201
Nunawading,-37.82043,145.17308
Nowra,-34.88422,150.60036000000002
North Wonthaggi,-38.6,145.6
North Sydney,-33.839,151.2072
North Melbourne,-37.8,144.96667
Northmead,-33.78333,150.98333
North Fitzroy,-37.78862,144.97885
Northcote,-37.76667,145.0
Noosaville,-26.4,153.06667
Noble Park,-37.96667,145.16666999999998
Newtown,-33.89835,151.17754
Newport,-37.84427,144.88483
Newport,-33.65517,151.32126
New Norfolk,-42.78261,147.0587
Newnham,-41.39714,147.13127
Newcastle,-32.92715,151.77647
Nerang,-27.989409999999996,153.33633
Nelson Bay,-32.72043,152.14398
Narre Warren North,-37.98333,145.31667
Narre Warren,-38.03333,145.3
Narrabri,-30.32612,149.78371
Narrabeen,-33.71277,151.29736
Narellan,-34.03333,150.73333
Narara,-33.4,151.35
Narangba,-27.20338,152.95923
Naracoorte,-36.95785,140.7383
Nambucca Heads,-30.643179999999997,153.00884
Nambucca,-30.633329999999997,152.98333
Nambour,-26.62613,152.95941000000002
Muswellbrook,-32.261179999999996,150.89009
Murwillumbah,-28.32732,153.39338999999998
Murrumbeena,-37.9,145.06667
Mulgrave,-37.91667,145.2
Mudgee,-32.59426,149.5871
Mount Martha,-38.26667,145.01667
Mount Gambier,-37.8318,140.77919
Mount Evelyn,-37.78333,145.38333
Mount Eliza,-38.18333,145.08333000000002
Mount Druitt,-33.76667,150.81667
Mount Colah,-33.68333,151.11667
Moss Vale,-34.553740000000005,150.37115
Mosman,-33.83902,151.23956
Morwell,-38.234759999999994,146.39498999999998
Mortdale,-33.96667,151.08333000000002
Mornington,-38.21792,145.03876
Moree,-29.46278,149.84157
Mordialloc,-38.0,145.08333000000002
Morayfield,-27.108759999999997,152.94907
Moorabbin,-37.93667,145.03417
Moonee Ponds,-37.76667,144.91666999999998
Moonah,-42.84617,147.30228
Mooloolaba,-26.68164,153.11925
Montrose,-37.81667,145.35
Montmorency,-37.71667,145.11667
Moe,-38.17828,146.26099
Mittagong,-34.45002,150.44572
Mitcham,-37.81667,145.2
Miranda,-34.03857,151.10005
Mill Park,-37.66667,145.06667
Millicent,-37.59389,140.34947
Mildura,-34.18551,142.16251
Merrylands,-33.83333,150.98333
Merimbula,-36.88901,149.90961000000001
Mernda,-37.60075,145.09555
Mentone,-37.98333,145.06667
Menai,-34.01667,151.01667
Melton South,-37.70773,144.57493
Melton,-37.68339,144.58543
Melbourne,-37.814,144.96331999999998
Medowie,-32.7415,151.8676
McKinnon,-37.91667,145.05
Matraville,-33.95,151.23333
Mascot,-33.925979999999996,151.19347
Maryborough,-37.04562,143.73923
Maryborough,-25.54073,152.70493000000002
Marrickville,-33.90318,151.15176
Maroubra,-33.95,151.23333
Maribyrnong,-37.78333,144.88333
Margate,-27.247609999999998,153.09808999999998
Mareeba,-16.995,145.42323000000002
Manly,-33.797979999999995,151.28826
Maitland,-32.73308,151.5574
Macleod,-37.73333,145.06667
Mackay,-21.15345,149.16554
Lysterfield,-37.93333,145.3
Long Jetty,-33.35795,151.48135
Liverpool,-33.9,150.93333
Lithgow,-33.48247,150.13631
Lismore,-28.813540000000003,153.2773
Lisarow,-33.38333,151.36667
Lindisfarne,-42.84837,147.36192
Lindfield,-33.78333,151.16666999999998
Lilydale,-37.75,145.35
Lidcombe,-33.86436,151.0397
Leumeah,-34.05,150.83333000000002
Leopold,-38.19001,144.46825
Leichhardt,-33.88341,151.15625
Leeton,-34.55105,146.40483
Lavington,-36.05,146.93333
Launceston,-41.438759999999995,147.13467
Lara,-38.02388,144.40617
Langwarrin,-38.16667,145.16666999999998
Lalor,-37.66667,145.01667
Lakes Entrance,-37.88115,147.98103
Lakemba,-33.91972,151.07592
Lake Albert,-35.16667,147.38333
Kyabram,-36.31335,145.05035
Kurri Kurri,-32.81933,151.47908
Kingston,-42.97638,147.30351000000002
Kingscliff,-28.259829999999997,153.57816
Kingaroy,-26.53994,151.8373
Kilsyth,-37.8,145.31667
Kiama,-34.668279999999996,150.85218999999998
Keysborough,-37.99116,145.17385
Kew,-37.80639,145.03086000000002
Kenthurst,-33.65527,151.00503
Kensington,-33.920190000000005,151.22241
Kensington,-37.78333,144.93333
Kennington,-36.78333,144.3
Kempsey,-31.078979999999998,152.83093
Kelso,-33.41667,149.6
Keilor,-37.71667,144.83333000000002
Katoomba,-33.719770000000004,150.30739
Kangaroo Flat,-36.8,144.25
Jannali,-34.01643,151.06065
Inverell,-29.77403,151.11166
Innisfail,-17.52209,146.03101999999998
Ingleburn,-34.0,150.86667
Ingham,-18.64552,146.16248000000002
Hughesdale,-37.9,145.08333000000002
Horsham,-36.71131,142.19981
Hornsby,-33.70244,151.09931
Hobart,-42.87936,147.32941
Highett,-37.95,145.05
Helensburgh,-34.17836,150.99522
Heidelberg West,-37.75,145.03333
Heidelberg,-37.75,145.06667
Heathmont,-37.83333,145.25
Heathcote,-34.0841,151.01305
Healesville,-37.65395,145.51718
Hawthorn South,-37.83333,145.05
Hastings,-38.3,145.18333
Hampton Park,-38.03333,145.25
Hampton,-37.95,145.0
Hamilton,-37.74425,142.02202
Hallam,-38.01667,145.26667
Haberfield,-33.88333,151.2
Gympie,-26.18979,152.66499
Gunnedah,-30.98065,150.25838000000002
Griffith,-34.28853,146.05093
Greenvale,-37.63333,144.86667
Greensborough,-37.70462,145.10302
Granville,-33.83333,151.01667
Grafton,-29.69012,152.93337
Goulburn,-34.75155,149.72086000000002
Gorokan,-33.25764,151.5097
Gordon,-29.3,152.71667
Goonellabah,-28.816670000000002,153.31667
Goondiwindi,-28.54709,150.30546
Goodna,-27.610459999999996,152.89896000000002
Gold Coast,-28.000290000000003,153.43088
Glenroy,-37.7,144.93333
Glenorchy,-42.83343,147.27593000000002
Glen Innes,-29.73485,151.7385
Glenhaven,-33.7,151.0
Glenfield,-33.96667,150.9
Glenferrie,-37.83333,145.05
Glenbrook,-33.76667,150.61667
Gladstone,-23.84852,151.25775
Geelong West,-38.13888,144.34842
Geelong,-38.14711,144.36068999999998
Gatton,-27.558729999999997,152.27618
Frankston East,-38.13333,145.13333
Frankston,-38.14458,145.12291000000002
Forster,-32.18136,152.51715
Forest Hill,-37.83333,145.18333
Footscray,-37.8,144.9
Fitzroy,-37.798390000000005,144.97833
Fawkner,-37.71667,144.96667
Essendon,-37.76667,144.91666999999998
Epping,-37.65,145.03333
Epping,-33.77271,151.08184
Engadine,-34.06564,151.01266
Emerald,-37.931670000000004,145.44093
Emerald,-23.52296,148.15784
Eltham North,-37.7,145.15
Eltham,-37.73333,145.15
Edithvale,-38.037240000000004,145.10974
Echuca,-36.140570000000004,144.75185
East Maitland,-32.75,151.58333000000002
East Ballina,-28.866670000000003,153.58333000000002
Earlwood,-33.95,151.1
Dubbo,-32.24295,148.60484
Dromana,-38.33375,144.96458
Doreen,-37.6,145.15
Doonside,-33.76667,150.86667
Donvale,-37.7891,145.17488
Doncaster East,-37.78761,145.14888
Doncaster,-37.78828,145.12373
Dingley Village,-37.9827,145.1342
Diamond Creek,-37.66667,145.15
Devonport,-41.17695,146.35152
Derrimut,-37.79238,144.76994
Deniliquin,-35.527409999999996,144.95958000000002
Deer Park,-37.76667,144.78333
Deception Bay,-27.193540000000002,153.02631
Darlinghurst,-33.87939,151.21925
Dapto,-34.5,150.78333
Dandenong,-37.98333,145.2
Dalby,-27.181690000000003,151.26205
Croydon North,-37.78333,145.3
Croydon,-33.88333,151.11667
Cronulla,-34.062509999999996,151.14961
Cranbourne,-38.1,145.28333
Cranbourne,-38.11342,145.28326
Craigieburn,-37.6,144.95
Cowra,-33.83554,148.69663
Corrimal,-34.378640000000004,150.90356
Corowa,-35.99962,146.3858
Cooma,-36.235170000000004,149.12408
Coolum Beach,-26.5283,153.08809
Coogee,-33.9205,151.25522
Concord,-33.84722,151.10381
Collingwood,-37.8,144.98333
Colac,-38.339,143.58489
Coffs Harbour,-30.296259999999997,153.11351000000002
Coburg,-37.75,144.96667
Clifton Springs,-38.1567,144.5551
Clifton Hill,-37.797979999999995,144.99533
Cleveland,-27.526770000000003,153.26516
Clayton South,-37.93333,145.11667
Clayton,-37.91667,145.11667
Clarinda,-37.93333,145.11667
Claremont,-42.78333,147.25
Wollongong,-34.424,150.89345
Chipping Norton,-33.9,150.95
Chelsea Heights,-38.03333,145.13333
Chelsea,-38.05,145.11667
Chatswood,-33.8,151.18333
Charters Towers,-20.076710000000002,146.26353
Charlestown,-32.95,151.66666999999998
Cessnock,-32.83211,151.35623
Caulfield North,-37.8739,145.02485
Castlemaine,-37.06709,144.21684
Castle Hill,-33.73333,151.0
Casino,-28.858190000000004,153.04748
Carrum Downs,-38.09968,145.17248
Carnegie,-37.88333,145.06667
Carlton North,-37.78333,144.96667
Carlton,-37.8,144.96667
Carlingford,-33.78269,151.04888
Caringbah,-34.047259999999994,151.12051
Canberra,-35.28346,149.12807
Camperdown,-33.88965,151.17642
Campbelltown,-34.06667,150.81667
Campbellfield,-37.68333,144.95
Camberwell,-37.84205,145.0694
Caloundra,-26.803459999999998,153.12195
Cairns,-16.92304,145.76625
Caboolture,-27.08465,152.9511
Byron Bay,-28.64201,153.61194
Burwood East,-37.85,145.15
Burpengary,-27.157459999999997,152.95758
Burnie,-41.05584,145.90375
Bundamba,-27.60947,152.81133
Bundaberg,-24.86621,152.3479
Bulli,-34.33834,150.91347
Bulleen,-37.76667,145.08333000000002
Buderim,-26.68443,153.05705
Brunswick West,-37.76461,144.94383
Brunswick East,-37.77255,144.97241
Brunswick,-37.76667,144.96667
Broken Hill,-31.96173,141.45998
Broadmeadows,-37.68015,144.91877
Brisbane,-27.467940000000002,153.02809
Brighton,-27.295820000000003,153.05721
Bridgewater,-42.737190000000005,147.22784
Box Hill,-37.818870000000004,145.12545
Bowral,-34.4775,150.4204
Bowen,-20.01367,148.24754
Botany,-33.94599,151.19591
Boronia,-37.86667,145.28333
Bongaree,-27.08367,153.15941999999998
Bomaderry,-34.84967,150.61093
Blaxland,-33.75,150.6
Blackwater,-23.58351,148.87912
Blacktown,-33.76667,150.91666999999998
Blackmans Bay,-43.00311,147.31694
Biloela,-24.395889999999998,150.51504
Berwick,-38.03333,145.35
Berkeley Vale,-33.35,151.43333
Berkeley,-34.48333,150.85
Bentleigh,-37.91806,145.03544
Bendigo,-36.758179999999996,144.28024
Benalla,-36.55113,145.98425
Beenleigh,-27.711370000000002,153.2029
Beaumaris,-37.98534,145.03361
Bayswater,-37.85,145.26667
Baulkham Hills,-33.75881,150.99292
Bathurst,-33.41665,149.5806
Batemans Bay,-35.706579999999995,150.17541
Banora Point,-28.212979999999998,153.53634
Bankstown,-33.91667,151.03333
Balwyn,-37.81667,145.06667
Balmain,-33.85481,151.1833
Ballina,-28.864140000000003,153.56541
Ballarat,-37.56622,143.84957
Balgowlah,-33.794940000000004,151.2572
Balaclava,-37.86667,145.0
Bairnsdale,-37.82289,147.61041
Bacchus Marsh,-37.67268,144.43829
Ayr,-19.573929999999997,147.40666000000002
Auburn,-33.85,151.03333
Atherton,-17.268639999999998,145.47522
Aspendale,-38.02913,145.10266000000001
Ashfield,-33.88834,151.12274
Ashburton,-37.86667,145.08333000000002
Ascot Vale,-37.78333,144.91666999999998
Artarmon,-33.81667,151.18333
Armidale,-30.50828,151.67123
Ararat,-37.28542,142.92728
Altona,-37.869640000000004,144.83036
Albury,-36.074940000000005,146.92394
Albert Park,-37.83333,145.0
Raymond Terrace,-32.75,151.75
Gymea,-34.03637,151.08528
Kirrawee,-34.038309999999996,151.06903
Gymea Bay,-34.05209,151.08795
Brighton-Le-Sands,-33.96009,151.1511
Blakehurst,-33.99152,151.10876000000002
Lugarno,-33.98267,151.04183999999998
New Town,-42.85758,147.30868999999998
Sandy Bay,-42.894490000000005,147.32439
Fairy Meadow,-34.39667,150.89583000000002
South Brisbane,-27.48034,153.02049
Scarborough,-27.201179999999997,153.10939
Bonbeach,-38.06528,145.12278
Highett,-37.95167,145.03943999999998
Cheltenham,-37.969440000000006,145.04806000000002
Parkdale,-37.99423,145.07339
Bellevue Hill,-33.87899,151.25101
Paddington,-33.884190000000004,151.23151000000001
Lilyfield,-33.874990000000004,151.1653
Drummoyne,-33.85237,151.15491
Greenwich,-33.83954,151.183
Hunters Hill,-33.83432,151.1459
Cammeray,-33.82132,151.21608999999998
Neutral Bay,-33.83784,151.2175
Randwick,-33.914390000000004,151.24895
Bronte,-33.90198,151.26556000000002
Bondi,-33.894290000000005,151.26443999999998
Gladesville,-33.83333,151.13333
Forestville,-33.76667,151.20833000000002
Dee Why,-33.75,151.3
Umina,-33.523140000000005,151.31325
Airport West,-37.7247,144.88126
Gladstone Park,-37.68742,144.88675
Palmerston,-12.48602,130.9833
Moranbah,-22.00163,148.04661000000002
Kaleen,-35.218140000000005,149.10516
Karratha,-20.73765,116.84629
Hillarys,-31.80698,115.74045
Kingsford,-33.92399,151.22749
Klemzig,-34.87928,138.63562
Maidstone,-37.78035,144.87353000000002
Woollahra,-33.8878,151.23681000000002
Corlette,-32.72014,152.10846
Howrah,-42.88728,147.40554
North Narrabeen,-33.70935,151.29607
Joondalup,-31.74445,115.76835
Como,-31.991190000000003,115.86336000000001
Arncliffe,-33.93627,151.14819
East Lismore,-28.819329999999997,153.28743
Mindarie,-31.689320000000002,115.70698
Clarkson,-31.68282,115.7247
Kinross,-31.71868,115.73839
Currambine,-31.73306,115.74766000000001
Heathridge,-31.76244,115.75895
Freshwater,-33.77867,151.28569
Taringa,-27.490609999999997,152.97861
Inala,-27.59715,152.97432
Mount Lawley,-31.934390000000004,115.8716
Paradise,-34.87361,138.66896
Athelstone,-34.87019,138.6999
Wooloowin,-27.42244,153.04204
Zillmere,-27.355909999999998,153.04453
Taigum,-27.34265,153.04443999999998
Bracken Ridge,-27.3171,153.03097
Toowong,-27.4836,152.98943
Windsor,-27.43631,153.02882
Bridegman Downs,-27.35538,152.99432
Canterbury,-33.91192,151.11862
Tamborine Mountain,-27.969540000000002,153.19937
North Ryde,-33.79677,151.12436
Stirling,-31.88343,115.8099
North Melbourne,-37.802890000000005,144.94816
Caroline Springs,-37.741240000000005,144.73631
Hoppers Crossing,-37.88264,144.7003
Rouse Hill,-33.68207,150.9154
Logan City,-27.63917,153.10943999999998
Carindale,-27.505779999999998,153.10236
Paramatta,-33.8178,151.00348
Ferntree Gully,-37.884609999999995,145.29539
City of Parramatta,-33.81667,151.0
Phillip Island,-38.48349,145.23102
Springwood,-27.611829999999998,153.12899
Adelaide Hills,-34.911190000000005,138.70735
Canning Vale,-32.057990000000004,115.91814
Varsity Lakes,-28.0894,153.4122
Oxenford,-27.89033,153.31309
Toormina,-30.35384,153.08843000000002
Glenmore Park,-33.79068,150.6693
Southbank,-37.8228,144.96434
St Kilda East,-37.86594,145.00018
Docklands,-37.8149,144.95051999999998
Melton West,-37.67852,144.56883
Kurunjang,-37.67587,144.5969
Ashburton,-37.862590000000004,145.07936
Ashwood,-37.86659,145.10553000000002
Glen Iris,-37.85995,145.05489
Toorak,-37.84077,145.00829
Windsor,-37.8548,144.99267
Balaclava,-37.86916,144.99773000000002
Caulfield North,-37.87255,145.02262
Elsternwick,-37.884409999999995,145.00433999999998
Elwood,-37.88214,144.98215
Burwood,-37.849779999999996,145.11901
Box Hill South,-37.832359999999994,145.12098
Blackburn,-37.81901,145.15326000000002
Canterbury,-37.8247,145.08476000000002
Surrey Hills,-37.82524,145.10038
Hawthorn East,-37.82484,145.0464
Kew East,-37.797579999999996,145.05378000000002
Balwyn North,-37.790859999999995,145.09386
Mont Albert North,-37.80043,145.10828
Box Hill North,-37.802659999999996,145.12656
Blackburn North,-37.809309999999996,145.1518
Forest Hill,-37.83656,145.16519
Blackburn South,-37.83975,145.15549
Chadstone,-37.88766,145.09519
Carnegie,-37.88867,145.05713
Malvern East,-37.87397,145.04253
Murrumbeena,-37.890229999999995,145.07112
Oakleigh South,-37.92416,145.09146
Caulfield South,-37.89562,145.02597
Brighton East,-37.90232,145.01734
Hampton,-37.93723,145.0046
Black Rock,-37.97357,145.01636000000002
Aspendale Gardens,-38.02277,145.11798000000002
Booval,-27.61328,152.78943999999998
Brassall,-27.59753,152.74755
Raceview,-27.63472,152.77518999999998
Flinders View,-27.65046,152.77451000000002
Redbank Plains,-27.64613,152.85965
Collingwood Park,-27.612820000000003,152.86008
Clontarf,-27.25341,153.07835
Ballarat Central,-37.562059999999995,143.85082
St Albans,-37.74496,144.80049
Eleebana,-32.9896,151.63642
Summer Hill,-33.891459999999995,151.13825
Altona North,-37.83487,144.84735
Balcatta,-31.875009999999996,115.82838999999998
Belmont,-31.9435,115.9255
Bateau Bay,-33.383340000000004,151.46671
East Perth,-31.95872,115.87109
Alexandria,-33.902190000000004,151.20037
Doveton,-37.99346,145.23891
Endeavour Hills,-37.97695,145.25866000000002
Clayton,-37.91731,145.13041
Tapping,-31.71947,115.79558999999999
Taylors Lakes,-37.69863,144.78631000000001
Woodvale,-31.789279999999998,115.79676
Roxburgh Park,-37.625809999999994,144.92555
Beeliar,-32.133390000000006,115.80637
Lynbrook,-38.05588,145.25615
Wyndham Vale,-37.8415,144.54101
Willetton,-32.05251,115.88781999999999
Carramar,-31.69023,115.77158999999999
Alexander Heights,-31.827579999999998,115.86501000000001
Delahey,-37.7198,144.77732
Wilson,-32.020579999999995,115.91181
Butler,-31.642979999999998,115.70431
Darch,-31.81255,115.8458
Innaloo,-31.89272,115.79508
Booragoon,-32.03945,115.83368999999999
Seville Grove,-32.13645,115.98905
Murrumba Downs,-27.267329999999998,153.01053000000002
Knoxfield,-37.88978,145.24962
Little Mountain,-26.784359999999996,153.09218
Glendenning,-33.7483,150.85411000000002
Padbury,-31.80645,115.7688
East Victoria Park,-31.988940000000003,115.90388
Palmyra,-32.04502,115.78589
Thornbury,-37.75829,145.00513999999998
Bell Park,-38.107929999999996,144.33839
Golden Square,-36.77265,144.25271
Annerley,-27.51228,153.03248
Dulwich Hill,-33.9041,151.13945
Viewbank,-37.739909999999995,145.09323
Chirnside Park,-37.7386,145.31431
Meadow Heights,-37.65117,144.91855
Westminster,-31.867440000000002,115.83918999999999
Bibra Lake,-32.097640000000006,115.81921000000001
Kardinya,-32.06561,115.81483
Karrinyup,-31.872329999999998,115.77683999999999
Kewdale,-31.978859999999997,115.95159
Ocean Reef,-31.758709999999997,115.73601000000001
Port Kennedy,-32.37342,115.7515
Secret Harbour,-32.40589,115.75851999999999
Tuart Hill,-31.89808,115.83495
Thornlie,-32.06003,115.955
Winthrop,-32.05216,115.82972
Yangebup,-32.12065,115.81623
Yokine,-31.90113,115.85318999999998
Hillside,-37.69047,144.74172
Wavell Heights,-27.39385,153.04698
Braybrook,-37.78671,144.85484
Cairnlea,-37.75931,144.78781
Bundoora,-37.69825,145.05966999999998
Patterson Lakes,-38.069340000000004,145.14327
Skye,-38.10505,145.2163
Beaumont Hills,-33.69993,150.9411
North Adelaide,-34.90733,138.59141
Victoria Park,-31.976190000000003,115.90525
Bondi Junction,-33.89275,151.24723
Bald Hills,-27.32112,153.00857
Beecroft,-33.74954,151.0648
Lane Cove North,-33.80543,151.16638
Ascot,-27.431540000000002,153.058
Chermside West,-27.38383,153.01586
Everton Park,-27.407320000000002,152.9884
Stafford,-27.41044,153.01105
Stafford Heights,-27.39354,153.0105
Forest Lake,-27.625629999999997,152.96883
Greenslopes,-27.50815,153.04951
Mansfield,-27.53929,153.09895
Mount Gravatt East,-27.5405,153.08221
Sunnybank Hills,-27.61025,153.05388
Upper Mount Gravatt,-27.56128,153.08453
Yeronga,-27.51571,153.01641999999998
Camp Hill,-27.493540000000003,153.07629
Manly West,-27.47382,153.16641
Morningside,-27.467290000000002,153.0732
Wynnum West,-27.458240000000004,153.15319
Springfield,-27.65365,152.91716
Rochedale South,-27.595209999999998,153.12332
Waterford West,-27.690559999999998,153.13318999999998
Ferny Hills,-27.395940000000003,152.93737
Samford Valley,-27.3727,152.86699
Flemington,-37.78825,144.93001
Fairfield,-37.77977,145.01764
Heidelberg Heights,-37.74313,145.05695
Westmeadows,-37.67604,144.88701
Keilor East,-37.73261,144.86504
Coburg North,-37.72867,144.96133999999998
Hadfield,-37.70728,144.9416
Oak Park,-37.71842,144.91945
Pascoe Vale South,-37.73973,144.94615
Bayswater North,-37.82612,145.29831000000001
Croydon Hills,-37.776509999999995,145.26355
Vermont South,-37.85747,145.1827
Cranbourne East,-38.11531,145.29814
Cranbourne North,-38.08292,145.27805
Cranbourne West,-38.0965,145.26707
Narre Warren South,-38.043690000000005,145.2923
Dandenong North,-37.96649,145.2081
Noble Park North,-37.94978,145.19257
Frankston North,-38.12352,145.14836
Frankston South,-38.16604,145.13643000000002
Keilor Downs,-37.72337,144.80839
Sunshine North,-37.769870000000004,144.82787
Sunshine West,-37.79117,144.81637
Altona Meadows,-37.88413,144.78367
West Footscray,-37.79746,144.87726999999998
Taylors Hill,-37.70988,144.75483
Allambie Heights,-33.76655,151.24981
Belfield,-33.90354,151.08467
Berala,-33.871970000000005,151.03386
Berowra Heights,-33.612109999999994,151.13754
Bondi Beach,-33.89103,151.27157
Cabramatta West,-33.89669,150.91056
Cambridge Park,-33.747840000000004,150.72208
Caringbah South,-34.05662,151.12149
Concord West,-33.84809,151.08608999999998
Ermington,-33.81483,151.05467
Fairfield East,-33.86938,150.97128999999998
Fairfield Heights,-33.86445,150.93884
Fairlight,-33.79575,151.27346
Harris Park,-33.82285,151.00781
Hornsby Heights,-33.6713,151.09428
Killara,-33.766040000000004,151.16213
Kingswood Park,-33.76651,150.7144
Macquarie Park,-33.775,151.11248
Marsfield,-33.777840000000005,151.10574
Narellan Vale,-34.04974,150.74392
Narraweena,-33.75519,151.27659
North Bondi,-33.885329999999996,151.27522
South Coogee,-33.931059999999995,151.25599
South Windsor,-33.61808,150.80443
Stanhope Gardens,-33.716359999999995,150.92614
Telopea,-33.792790000000004,151.03858
West Pennant,-33.7457,151.04764
West Ryde,-33.80543,151.07386
Wollstonecraft,-33.8328,151.18981000000002
Henley Beach,-34.92029,138.49442
City Beach,-31.9344,115.76173999999999
Kallaroo,-31.790979999999998,115.75298000000001
Mount Pleasant,-32.03974,115.84993
Parmelia,-32.25784,115.82208
Rivervale,-31.95546,115.91306000000002
South Lake,-32.11125,115.83873
Wembley Downs,-31.911690000000004,115.77358000000001
West Moonah,-42.849959999999996,147.28181
Burleigh Waters,-28.09975,153.42463
Elermore Vale,-32.91621,151.67665
Mayfield,-32.89793,151.73613
Belmont North,-33.02081,151.66849
Toronto,-33.01357,151.59373
Albion Park Rail,-34.56123,150.79675
Barrack Heights,-34.56601,150.85516
Cordeaux Heights,-34.44043,150.83748
Hamlyn Heights,-38.12108,144.32799
Tweed Heads West,-28.187359999999998,153.52278
Rangeville,-27.58318,151.97997
Darling Heights,-27.596590000000003,151.93045
East Toowoomba,-27.570859999999996,151.97422
South Tamworth,-31.11,150.92254
East Albury,-36.08144,146.92991
North Albury,-36.05745,146.92995
Oranjestad,12.52398,-70.02703000000001
Babijn,12.53333,-69.98333000000001
Arasji,12.61667,-70.06667
Angochi,12.51667,-69.95
Mariehamn,60.09726,19.93481
Prishibinskoye,39.11817,48.59255
Zangilan,39.0884,46.6513
Yaycı,38.9427,45.7319
Yardımlı,38.907709999999994,48.240520000000004
Novyy Karanlug,39.79546,47.10989
Xankandi,39.8177,46.7528
Əhmədbəyli,39.87867,48.39901
Shushi,39.760059999999996,46.74989
Salyan,39.59621,48.984790000000004
Saatlı,39.932140000000004,48.36892
Qubadlı,39.344409999999996,46.58183
Ordubad,38.90595,46.02341
Neftçala,39.3768,49.247
Nakhchivan,39.208890000000004,45.41222
Mincivan,39.03058,46.7214
Masally,39.03532,48.6654
Lerik,38.77388,48.414970000000004
Lankaran,38.75428,48.85062
Laçın,39.59881,46.55045
Xocalı,39.91297,46.790279999999996
Imishli,39.87095,48.05995
Fizuli,39.60094,47.14529
Jebrail,39.39917,47.02835
Dünyamalılar,39.77278,47.75889
Culfa,38.9558,45.6308
Dzhalilabad,39.20963,48.491859999999996
Cahri,39.34837,45.41557
Boradigah,38.93013,48.7092
Pushkino,39.45833,48.545
Beylagan,39.77556,47.61861
Severo-Vostotchnyi Bank,39.41117,49.24792
Astara,38.45598,48.87498
Şirvan,39.93778,48.928999999999995
Ağdam,39.99096,46.92736
Avşar,39.973890000000004,47.42389
Zyrya,40.36613,50.29198
Zardob,40.21991,47.70997
Zaqatala,41.6316,46.64479
Zabrat,40.47746,49.94174
Yevlakh,40.618320000000004,47.15014
Xudat,41.630520000000004,48.68161
Yelenendorf,40.585840000000005,46.3189
Xaçmaz,41.464259999999996,48.80565
Ujar,40.519020000000005,47.65423
Türkan,40.3646,50.22075
Tovuz,40.992490000000004,45.62838
Terter,40.34179,46.93242
Sumqayıt,40.58972,49.66861
Kyzyl-Burun,41.07754,49.11257
Qaraçuxur,40.39667,49.97361
Saray,40.532990000000005,49.716809999999995
Shamkhor,40.82975,46.0178
Shamakhi,40.631409999999995,48.64137
Sheki,41.19194,47.170559999999995
Samux,40.76485,46.40868
Sabunçu,40.4425,49.94806
Sabirabad,40.00869,48.47701
Qusar,41.4275,48.4302
Quba,41.36108,48.51341
Qobustan,40.08238,49.41205
Hacıqabul,40.038740000000004,48.942859999999996
Qazax,41.092459999999996,45.36561
Qax,41.41826,46.920429999999996
Qutqashen,40.98247,47.849090000000004
Oğuz,41.07128,47.46528
Hacı Zeynalabdin,40.623329999999996,49.558609999999994
Nardaran,40.55611,50.005559999999996
Naftalan,40.50821,46.8203
Mingelchaur,40.76395,47.05953
Maştağa,40.52983,50.006159999999994
Mardakyany,40.491820000000004,50.142920000000004
Qobustan,40.5336,48.92819
Lökbatan,40.3256,49.73376
Qızılhacılı,40.57362,46.849
Kyurdarmir,40.34532,48.15085
Qobu,40.404720000000005,49.71306
Khyzy,40.90576,49.08127
Khirdalan,40.44808,49.75502
Khodzhi-Gasan,40.412929999999996,49.769040000000004
Qarayeri,40.78825,46.3072
Kerbakhiar,40.109840000000005,46.04446
İsmayıllı,40.78485,48.15141
Yeni Suraxanı,40.43026,50.03598
Geoktschai,40.65055,47.74219
Hövsan,40.37444,50.08528
Goranboy,40.610279999999996,46.78972
Ganja,40.68278,46.36056
Kyadabek,40.57055,45.812290000000004
Corat,40.57176,49.705090000000006
Ceyranbatan,40.541940000000004,49.66073
Dzagam,40.9033,45.88564
Divichibazar,41.20117,48.987120000000004
Yukhary-Dashkesan,40.52393,46.08186
Çinarlı,41.46965,46.915820000000004
Buzovna,40.51903,50.11438
Binagadi,40.46602,49.82783
Biny Selo,40.450759999999995,50.086859999999994
Bilajer,40.564409999999995,50.04002
Barda,40.37577,47.12619
Belokany,41.726259999999996,46.40478
Balakhani,40.463440000000006,49.918929999999996
Bilajari,40.4444,49.805659999999996
Baku,40.37767,49.89201
Pirallahı,40.47013,50.32476
Amirdzhan,40.426390000000005,49.98361
Aliabad,41.4829,46.63483
Aghsu,40.57028,48.40087
Aghstafa,41.11889,45.45389
Ağdaş,40.64699,47.4738
Martakert,40.212379999999996,46.820859999999996
Agdzhabedy,40.05015,47.45937
Bakıxanov,40.41894,49.96693
Aran,40.62528,46.975559999999994
Ramana,40.44222,49.98056
Badamdar,40.34024,49.8045
Zvornik,44.38605,19.10247
Živinice,44.449290000000005,18.64978
Žepče,44.42667,18.037779999999998
Zenica,44.20169,17.90397
Željezno Polje,44.39875,17.941029999999998
Zavidovići,44.44583,18.149720000000002
Vrnograč,45.16369,15.95444
Vogošća,43.90225,18.344379999999997
Vitez,44.15424,17.79009
Visoko,43.988890000000005,18.178060000000002
Višegrad,43.7826,19.29256
Velika Obarska,44.80461,19.16183
Velika Kladuša,45.18497,15.80579
Varoška Rijeka,45.08936,16.01906
Vareš,44.16444,18.328329999999998
Tuzla,44.53842,18.667089999999998
Tržačka Raštela,44.975970000000004,15.784889999999999
Trn,44.858290000000004,17.23583
Trebinje,42.71197,18.34362
Travnik,44.22637,17.66583
Tojšići,44.501329999999996,18.78523
Teslić,44.606390000000005,17.859720000000003
Tešanj,44.611909999999995,17.98552
Šturlić,45.06389,15.77806
Stolac,43.083999999999996,17.95995
Stijena,44.9363,16.02224
Srebrenik,44.70819,18.48834
Srbac,45.0973,17.523310000000002
Sokolac,43.93817,18.80079
Skender Vakuf,44.49071,17.381610000000002
Šipovo,44.28237,17.08597
Šekovići,44.29896,18.855320000000003
Sarajevo,43.84864,18.35644
Sanski Most,44.7667,16.667
Sanica,44.61354,16.640620000000002
Rodoč,43.31453,17.8029
Novi Travnik,44.17133,17.658160000000002
Prozor,43.82222,17.609170000000002
Prnjavor,44.87021,17.66256
Prijedor,44.97991,16.714010000000002
Potoci,43.40953,17.87855
Podzvizd,45.174170000000004,15.873610000000001
Podhum,43.72295,16.99887
Pećigrad,45.05444,15.896939999999999
Pale,43.81664,18.56949
Otoka,44.96,16.179170000000003
Ostrožac,44.90866,15.94045
Orahovica Donja,44.65345,18.369510000000002
Omarska,44.8917,16.898139999999998
Odžak,45.01038,18.327189999999998
Nevesinje,43.25861,18.113329999999998
Mrkonjić Grad,44.41729,17.08288
Mostar,43.34333,17.80806
Mionica,44.86646,18.46603
Milići,44.170159999999996,19.09195
Mala Kladuša,45.13443,15.852170000000001
Mahala,44.01194,18.25528
Maglaj,44.547709999999995,18.10003
Ljubuški,43.196940000000005,17.545
Livno,43.82695,17.007460000000002
Široki Brijeg,43.3829,17.594160000000002
Laktaši,44.908570000000005,17.30135
Kotor-Varoš,44.61831,17.37204
Ključ,44.532509999999995,16.77682
Kladanj,44.226690000000005,18.69274
Kiseljak,43.94295,18.08132
Kalenderovci Donji,44.94673,17.83785
Kakanj,44.133109999999995,18.12292
Janja,44.66554,19.24691
Jajce,44.34203,17.27059
Ilijaš,43.95128,18.271279999999997
Hadžići,43.82222,18.206670000000003
Gromiljak,43.96668,18.055039999999998
Gradačac,44.87851,18.42764
Gračanica,44.703070000000004,18.3101
Gostovići,44.41124,18.170289999999998
Gornji Vakuf,43.93806,17.58833
Goražde,43.66795,18.97564
Fojnica,43.95952,17.90288
Foča,43.50646,18.77854
Tomislavgrad,43.71849,17.22515
Donji Vakuf,44.143609999999995,17.4
Donja Mahala,45.04327,18.66996
Doboj,44.731790000000004,18.08698
Divičani,44.366820000000004,17.32678
Derventa,44.978390000000005,17.90779
Čitluk,43.228609999999996,17.70083
Cazin,44.96694,15.943060000000001
Čapljina,43.121390000000005,17.68444
Bužim,45.05361,16.03254
Bugojno,44.05722,17.45083
Brčko,44.87278,18.808329999999998
Bosansko Grahovo,44.17944,16.363889999999998
Bosanski Novi,45.04643,16.37782
Bosanski Brod,45.13747,17.98722
Bosanska Krupa,44.8825,16.15139
Bosanska Gradiška,45.14484,17.25453
Bosanska Dubica,45.17667,16.80944
Blatnica,44.48677,17.822779999999998
Bileća,42.87645,18.42967
Bijeljina,44.75874,19.214370000000002
Bihać,44.81694,15.870829999999998
Banovići,44.40596,18.52648
Banja Luka,44.77583,17.18556
Jelah,44.653999999999996,17.95897
Čelinac,44.72453,17.32431
Tešanjka,44.67228,18.01109
Kovači,44.44874,18.20521
Ćoralići,45.00694,15.871939999999999
Crnići,43.13156,17.864520000000002
Kačuni,44.06433,17.93894
Todorovo,45.08833,15.930829999999998
Konjic,43.65126,17.960820000000002
Jablanica,43.66028,17.761670000000002
Mejdan - Obilićevo,44.76324,17.19012
Welchman Hall,13.183329999999998,-59.566669999999995
Crane,13.1,-59.45
Speightstown,13.25,-59.65
Oistins,13.06667,-59.53333000000001
Holetown,13.186720000000001,-59.63808
Greenland,13.25,-59.566669999999995
Four Cross Roads,13.166670000000002,-59.51667
Checker Hall,13.28333,-59.63333000000001
Bridgetown,13.1,-59.61666999999999
Bathsheba,13.21434,-59.525209999999994
Thākurgaon,26.03097,88.46989
Teknāf,20.86382,92.30153
Tungi,23.89154,90.40231999999999
Sylhet,24.89904,91.87198000000001
Dohār,23.59311,90.14251
Jamālpur,24.91965,89.94811999999999
Shibganj,24.685010000000002,88.15638
Sātkhira,22.708170000000003,89.07185
Sirājganj,24.457710000000002,89.70801999999999
Netrakona,24.88352,90.72898
Narsingdi,23.92298,90.71768
Sandwīp,22.51409,91.45491
Shāhzādpur,24.17687,89.5988
Rāmganj,23.1006,90.84989
Rājshāhi,24.374000000000002,88.60114
Pirojpur,22.57965,89.97521
Panchagarh,26.33338,88.55776999999999
Patiya,22.29543,91.979
Parbatipur,25.66369,88.93093
Nārāyanganj,23.61352,90.50298000000001
Nālchiti,22.636960000000002,90.27195
Nāgarpur,24.05783,89.87696
Nageswari,25.96817,89.69153
Mymensingh,24.75636,90.40646
Muktāgācha,24.76484,90.25698
Mirzāpur,24.102870000000003,90.09841
Maulavi Bāzār,24.488879999999998,91.77075
Morrelgonj,22.45566,89.85584
Mehendiganj,22.822570000000002,90.52859000000001
Mathba,22.28616,89.95883
Lalmanirhat,25.917189999999998,89.44595
Lākshām,23.24018,91.12143
Comilla,23.46186,91.18503
Rangpur,25.74664,89.25166
Kushtia,23.9028,89.11943000000001
Kālīganj,23.40964,89.13801
Jhingergācha,23.11134,89.09061
Joypur Hāt,25.101470000000003,89.02734
Ishurdi,24.12858,89.06573
Habiganj,24.38044,91.41299000000001
Gaurnadi,22.97372,90.22376
Gafargaon,24.432,90.5585
Feni,23.0144,91.3966
Rāipur,23.0391,90.76808
Sarankhola,22.31006,89.79113000000001
Dhaka,23.7104,90.40744000000001
Chilmāri,25.55613,89.67097
Chhāgalnāiya,23.02475,91.51091
Lālmohan,22.33774,90.73708
Khagrachhari,23.107870000000002,91.97006999999999
Chhātak,25.03858,91.6815
Bhātpāra Abhaynagar,23.01472,89.43936
Bherāmāra,24.024520000000003,88.99234
Bhairab Bāzār,24.0524,90.9764
Bāndarban,22.195339999999998,92.21946
Kālia,23.043000000000003,89.63094
Baniachang,24.518629999999998,91.35786999999999
Bājitpur,24.21623,90.95002
Badarganj,25.67419,89.05377
Narail,23.155089999999998,89.49515
Tungipāra,22.899829999999998,89.90326
Sarishābāri,24.75127,89.83126
Sakhipur,24.319879999999998,90.16943
Raojān,22.53511,91.91919
Phultala,22.71673,89.51194
Pālang,23.218239999999998,90.35076
Pār Naogaon,24.80418,88.94875
Nabīnagar,23.88791,90.96791999999999
Lakshmīpur,22.9443,90.83005
Kesabpur,22.90725,89.21954000000001
Hājīganj,23.251910000000002,90.85508
Farīdpur,23.60612,89.84064000000001
Dinājpur,25.62745,88.63779
Uttar Char Fasson,22.226470000000003,90.71275
Chittagong,22.3384,91.83168
Char Bhadrāsan,23.309160000000002,90.22698000000001
Bera,24.078210000000002,89.63261999999999
Burhānuddin,22.495179999999998,90.72391
Sātkania,22.07639,92.04955
Cox’s Bāzār,21.453879999999998,91.96765
Khulna,22.80979,89.56439
Bhola,22.68759,90.64403
Barisāl,22.70497,90.37013
Jessore,23.169710000000002,89.21370999999999
Pābna,24.006439999999998,89.2372
Tāngāil,24.24984,89.91655
Bogra,24.85098,89.37108
Pīrgaaj,25.85587,88.35943
Nawābganj,24.59025,88.27444
Mādārīpur,23.17097,90.20935
Sherpur,25.018810000000002,90.01751
Kishorganj,24.43944,90.78291
Manikchari,22.839570000000002,91.84128
Bhāndāria,22.488979999999998,90.06273
Fatikchari,22.68768,91.78123000000001
Saidpur,25.77769,88.89169
Azimpur,23.7298,90.3854
Paltan,23.73625,90.41426
Zwijndrecht,51.21979,4.32664
Zwevegem,50.81268,3.33848
Zutendaal,50.93306,5.5753
Zulte,50.919540000000005,3.4485900000000003
Zoutleeuw,50.83316,5.10376
Zottegem,50.86955,3.81052
Zonnebeke,50.8726,2.98725
Zonhoven,50.99064,5.36819
Zomergem,51.11994,3.5649599999999997
Zoersel,51.26825,4.71296
Zingem,50.904090000000004,3.65305
Zemst,50.98318,4.46079
Zelzate,51.18963,3.8077699999999997
Zele,51.06566,4.0403
Zedelgem,51.14236,3.1368
Zaventem,50.88365,4.472980000000001
Zandhoven,51.21488,4.66164
Yvoir,50.3279,4.88059
Wuustwezel,51.392140000000005,4.59546
Wommelgem,51.20452,4.5225
Wingene,51.05782,3.27359
Willebroek,51.06041,4.36019
Wijnegem,51.22787,4.51895
Wielsbeke,50.9,3.3666699999999996
Wichelen,51.00526,3.97683
Wezembeek-Oppem,50.8395,4.494269999999999
Wevelgem,50.8,3.16667
Wetteren,51.00526,3.88341
Westerlo,51.09049,4.91544
Wervik,50.78069,3.0385400000000002
Wemmel,50.908120000000004,4.3061300000000005
Wellen,50.840959999999995,5.33867
Welkenraedt,50.6605,5.97034
Wavre,50.71717,4.601380000000001
Waterloo,50.714690000000004,4.3991
Waremme,50.6976,5.255240000000001
Waregem,50.88898,3.4275599999999997
Wanze,50.53907,5.20846
Walhain-Saint-Paul,50.62627,4.69837
Walcourt,50.25401,4.4379599999999995
Waimes,50.41488,6.11207
Wachtebeke,51.16852,3.87183
Waasmunster,51.10572,4.08573
Waarschoot,51.1525,3.605
Vosselaar,51.30856,4.8896
Vorselaar,51.20243,4.77259
Visé,50.7376,5.69907
Virton,49.56824,5.53259
Vilvoorde,50.92814,4.42938
Villers-le-Bouillet,50.57708,5.25945
Villers-la-Ville,50.56667,4.5166699999999995
Vielsalm,50.28407,5.915019999999999
Veurne,51.073159999999994,2.66803
Verviers,50.58907,5.86241
Turnhout,51.322540000000004,4.94471
Tubize,50.69059,4.2009
Trooz,50.57026,5.695209999999999
Tremelo,50.992309999999996,4.708069999999999
Tournai,50.60715,3.3893199999999997
Torhout,51.0656,3.10085
Tongeren,50.78054,5.464840000000001
Tienen,50.80745,4.9378
Tielt,50.999309999999994,3.3270699999999995
Thuin,50.33933,4.28604
Theux,50.533229999999996,5.81245
Tessenderlo,51.065129999999996,5.08856
Tervuren,50.82372,4.5141800000000005
Ternat,50.86654,4.1668199999999995
Temse,51.12794,4.2137199999999995
Stekene,51.2099,4.03651
Steenokkerzeel,50.91851,4.50989
Stavelot,50.395,5.93124
Staden,50.97456,3.0146900000000003
Stabroek,51.33189,4.37127
Sprimont,50.50922,5.6595
Spa,50.48375,5.86674
Soumagne,50.61385,5.74679
Sombreffe,50.52865,4.60087
Soignies,50.57904,4.07129
Sint-Truiden,50.816790000000005,5.18647
Sint-Pieters-Leeuw,50.77926,4.24355
Sint-Niklaas,51.16509,4.1437
Sint-Martens-Lennik,50.81158,4.16965
Sint-Martens-Latem,51.014590000000005,3.6377900000000003
Sint-Maria-Lierde,50.82172,3.8481400000000003
Sint-Lievens-Houtem,50.9197,3.86225
Sint-Laureins,51.242020000000004,3.52441
Sint-Kruis,51.21399,3.24949
Sint-Katelijne-Waver,51.06691,4.53469
Sint-Gillis-Waas,51.21914,4.12374
Sint-Genesius-Rode,50.74645,4.35754
Sint-Amands,51.05645,4.209569999999999
Silly,50.64877,3.92363
Seraing,50.58362,5.50115
Seneffe,50.53135,4.2630099999999995
Schoten,51.25251,4.502680000000001
Schilde,51.24107,4.58336
Schelle,51.12615,4.34114
Saint-Vith,50.281459999999996,6.1272400000000005
Saint-Nicolas,50.628370000000004,5.532430000000001
Saint-Hubert,50.02668,5.37401
Saint-Ghislain,50.448159999999994,3.81886
Rumst,51.08153,4.4221699999999995
Ruiselede,51.04039,3.39416
Rotselaar,50.95302,4.71665
Ronse,50.745740000000005,3.6005
Roeulx,50.50365,4.11163
Roeselare,50.946529999999996,3.12269
Rochefort,50.1631,5.2216
Rixensart,50.71229,4.52529
Rijkevorsel,51.34795,4.76053
Riemst,50.80995,5.60131
Retie,51.26652,5.08242
Remicourt,50.680690000000006,5.32785
Rebecq-Rognon,50.65147,4.10683
Ravels,51.37274,4.9921
Ranst,51.18983,4.56533
Ramillies,50.63395,4.90119
Raeren,50.6672,6.11535
Quiévrain,50.40737,3.68351
Quévy-le-Petit,50.368790000000004,3.9360199999999996
Quaregnon,50.440670000000004,3.8653
Puurs,51.074090000000005,4.2884400000000005
Putte,51.05337,4.632630000000001
Profondeville,50.375809999999994,4.86506
Poperinge,50.85386,2.7265900000000003
Pont-à-Celles,50.505179999999996,4.368869999999999
Plombières,50.73656,5.959219999999999
Pittem,50.99279,3.26317
Philippeville,50.19612,4.543740000000001
Perwez,50.62426,4.81354
Péruwelz,50.50819,3.5937300000000003
Pepinster,50.57375,5.8049
Peer,51.1303,5.4595199999999995
Pecq,50.68619,3.3378900000000002
Paliseul,49.90395,5.13537
Overpelt,51.21038,5.41557
Overijse,50.774359999999994,4.53461
Oupeye,50.71184,5.6468
Oud-Turnhout,51.31978,4.9841
Oud-Heverlee,50.83522,4.66421
Oudenburg,51.18489,3.00035
Oudenaarde,50.85168,3.60891
Ottignies,50.66535,4.56679
Opwijk,50.967240000000004,4.184419999999999
Opglabbeek,51.04258,5.58346
Oostrozebeke,50.92093,3.33799
Oostmalle,51.3,4.7333300000000005
Oostkamp,51.15432,3.23128
Oosterzele,50.95261,3.79826
Ostend,51.215509999999995,2.927
Olen,51.14391,4.8598
Nivelles,50.59833,4.32848
Ninove,50.82776,4.0265699999999995
Nijlen,51.160959999999996,4.6700800000000005
Nieuwpoort,51.13008,2.75135
Nieuwerkerken,50.8638,5.1946699999999995
Niel,51.11096,4.334280000000001
Nevele,51.035309999999996,3.5457400000000003
Neufchâteau,49.840740000000004,5.43535
Neerpelt,51.22807,5.4427
Nazareth,50.95686,3.59425
Nassogne,50.12849,5.34274
Nandrin,50.50675,5.41905
Namur,50.4669,4.8674599999999995
Mouscron,50.74497,3.2063900000000003
Mortsel,51.16697,4.45127
Morlanwelz-Mariemont,50.455020000000005,4.24519
Moorslede,50.8919,3.06117
Mont-Saint-Guibert,50.63427,4.610609999999999
Mons,50.45413,3.95229
Momignies,50.0271,4.16519
Mol,51.19188,5.116619999999999
Moerbeke,51.17409,3.93001
Middelkerke,51.185320000000004,2.82077
Meulebeke,50.95136,3.28804
Mettet,50.32119,4.662319999999999
Messancy,49.592009999999995,5.81879
Merksplas,51.358509999999995,4.865130000000001
Merelbeke,50.99447,3.74621
Merchtem,50.95129,4.23197
Menen,50.79722,3.12245
Melle,51.002320000000005,3.8052599999999996
Meise,50.93934,4.32655
Meerhout,51.1321,5.0784199999999995
Mechelen,51.02574,4.47762
Marchin,50.46707,5.2428
Marche-en-Famenne,50.22678,5.34416
Manage,50.50312,4.23589
Malmédy,50.42686,6.02794
Maldegem,51.207370000000004,3.4451099999999997
Machelen,50.91061,4.44174
Maasmechelen,50.96545,5.69452
Maaseik,51.09802,5.78379
Lummen,50.98772,5.19121
Lubbeek,50.88278,4.83896
Lovendegem,51.10168,3.6129800000000003
Louvain-la-Neuve,50.66829,4.6144300000000005
Londerzeel,51.00468,4.30304
Lommel,51.230740000000004,5.31349
Lokeren,51.103640000000006,3.99339
Lochristi,51.09644,3.8319400000000003
Lobbes,50.352579999999996,4.26716
Lint,51.12707,4.49669
Limbourg,50.61222,5.9412
Lille,51.24197,4.82313
Lier,51.13128,4.57041
Liège,50.63373,5.56749
Liedekerke,50.86892,4.08743
Lichtervelde,51.03333,3.15
Leuven,50.87959,4.7009300000000005
Lessines,50.711040000000004,3.8357900000000003
Leopoldsburg,51.11667,5.25
Lendelede,50.88626,3.23747
Ledegem,50.85785,3.1240900000000003
Ledeberg,51.03859,3.7445800000000005
Lede,50.96626,3.9859400000000003
Lebbeke,51.00464,4.13457
Landen,50.75267,5.082
Lanaken,50.89318,5.6468
La Louvière,50.48657,4.18785
La Hulpe,50.730909999999994,4.48577
La Calamine,50.718090000000004,6.01107
La Bruyère,50.39478,4.61444
Laarne,51.03078,3.85077
Kuurne,50.85143,3.2824
Kruishoutem,50.90168,3.5258800000000003
Kruibeke,51.17048,4.31444
Kraainem,50.86155,4.46946
Kortrijk,50.82803,3.26487
Kortessem,50.8589,5.38974
Kortenberg,50.88982,4.5435300000000005
Kortenaken,50.90862,5.05968
Kortemark,51.029509999999995,3.0411200000000003
Kontich,51.13213,4.44706
Koksijde,51.11642,2.6377200000000003
Koekelare,51.09047,2.9783
Knokke-Heist,51.35,3.26667
Knesselare,51.13932,3.4128199999999995
Kinrooi,51.14543,5.74207
Keerbergen,51.00295,4.63434
Kasterlee,51.24118,4.9665099999999995
Kaprijke,51.2172,3.61519
Kapelle-op-den-Bos,51.0097,4.36303
Kapellen,51.31377,4.43539
Kampenhout,50.9421,4.55103
Kalmthout,51.38442,4.47556
Jurbise,50.531000000000006,3.90942
Juprelle,50.7076,5.53127
Jodoigne,50.72357,4.86914
Jalhay,50.55876,5.96764
Jabbeke,51.18185,3.08935
Izegem,50.913959999999996,3.21378
Ittre,50.64396,4.26476
Ingelmunster,50.920809999999996,3.2557099999999997
Ieper,50.85114,2.8856900000000003
Ichtegem,51.09572,3.0154900000000002
Huy,50.51894,5.23284
Hulshout,51.07451,4.79081
Huldenberg,50.789390000000004,4.5831
Hove,51.15446,4.4707
Houthulst,50.97824,2.9505
Houthalen,51.03427,5.37429
Hoogstraten,51.400290000000005,4.76034
Hooglede,50.98333,3.08333
Holsbeek,50.920970000000004,4.75747
Hoeselt,50.84714,5.48767
Hoeilaart,50.7673,4.46835
Hoegaarden,50.7756,4.88952
Hoboken,51.176109999999994,4.34844
Heusden,51.036640000000006,5.280130000000001
Herzele,50.88681,3.89014
Herve,50.64083,5.7935300000000005
Herstal,50.66415,5.62346
Herselt,51.051590000000004,4.8823099999999995
Herne,50.72423,4.03481
Herk-de-Stad,50.940129999999996,5.16636
Herenthout,51.1401,4.755719999999999
Herentals,51.17655,4.83248
Herent,50.908609999999996,4.67056
Hensies,50.432629999999996,3.68411
Hemiksem,51.14484,4.3387400000000005
Helchteren,51.05591,5.38244
Heist-op-den-Berg,51.07537,4.728269999999999
Heers,50.75383,5.3021
Hastière-Lavaux,50.21849,4.82446
Hasselt,50.931059999999995,5.33781
Harelbeke,50.853429999999996,3.30935
Hannut,50.67142,5.0789800000000005
Hamois,50.3402,5.1561900000000005
Hamme,51.09822,4.13705
Halle,50.73385,4.23454
Halen,50.948370000000004,5.1109599999999995
Habay-la-Vieille,49.723290000000006,5.6199900000000005
Haaltert,50.90634,4.00093
Haacht,50.97737,4.63777
Grobbendonk,51.19043,4.73562
Grimbergen,50.934090000000005,4.37213
Grez-Doiceau,50.73901,4.69829
Gooik,50.79443,4.11378
Glabbeek-Zuurbemde,50.87348,4.94442
Gistel,51.15612,2.96387
Gingelom,50.74792,5.13422
Gesves,50.40146,5.07457
Gerpinnes,50.33789,4.52731
Geraardsbergen,50.77343,3.8822300000000003
Gent,51.05,3.7166699999999997
Genk,50.965,5.50082
Genappe,50.61173,4.4515199999999995
Gembloux,50.56149,4.6988900000000005
Geetbets,50.89431,5.1119900000000005
Geel,51.16557,4.98917
Gavere,50.92917,3.66184
Galmaarden,50.753890000000006,3.9712099999999997
Frasnes-lez-Buissenal,50.66783,3.6204699999999996
Frameries,50.40578,3.89603
Fosses-la-Ville,50.39517,4.69623
Florenville,49.69983,5.3074
Florennes,50.25127,4.60636
Floreffe,50.43452,4.7596
Fleurus,50.483509999999995,4.55006
Fléron,50.615159999999996,5.680619999999999
Flémalle-Haute,50.599940000000004,5.44471
Farciennes,50.43006,4.541519999999999
Evergem,51.105290000000004,3.7039999999999997
Eupen,50.6279,6.03647
Étalle,49.67385,5.6001900000000004
Estinnes-au-Val,50.41016,4.104769999999999
Estaimpuis,50.70485,3.26785
Essen,51.467909999999996,4.46901
Esneux,50.535959999999996,5.56775
Erquelinnes,50.30688,4.11129
Engis,50.581559999999996,5.39916
Enghien,50.68373,4.03284
Ellezelles,50.73512,3.67985
Éghezée,50.590759999999996,4.91175
Eeklo,51.18703,3.55654
Edegem,51.156620000000004,4.4450400000000005
Écaussinnes-d’Enghien,50.568220000000004,4.1658
Durbuy,50.352909999999994,5.45631
Duffel,51.09554,4.50903
Dour,50.39583,3.7779199999999995
Dison,50.610040000000005,5.8534
Dinant,50.258070000000004,4.9116599999999995
Dilbeek,50.84799,4.25972
Diksmuide,51.03248,2.86384
Diest,50.98923,5.050619999999999
Diepenbeek,50.90769,5.41875
Diegem,50.89727,4.43354
Destelbergen,51.05952,3.7989900000000003
Dessel,51.23855,5.11448
De Pinte,50.993390000000005,3.6474699999999998
De Panne,51.09793,2.59368
Dentergem,50.964290000000005,3.4161699999999997
Dendermonde,51.028690000000005,4.1010599999999995
Denderleeuw,50.885059999999996,4.07601
Deinze,50.98175,3.53096
De Haan,51.27261,3.0344599999999997
Deerlijk,50.85337,3.35416
Damme,51.25147,3.2814400000000004
Dalhem,50.71315,5.72774
Couvin,50.05284,4.49495
Court-Saint-Étienne,50.63378,4.56851
Courcelles,50.46379,4.3747
Comblain-au-Pont,50.47488,5.57711
Colfontaine,50.4141,3.85569
Ciney,50.29449,5.10015
Chimay,50.048559999999995,4.31712
Chièvres,50.58787,3.8071099999999998
Chaumont-Gistoux,50.67753,4.7212
Chaudfontaine,50.5828,5.6341
Châtelet,50.40338,4.5282599999999995
Chastre-Villeroux-Blanmont,50.60857,4.64198
Chasse Royale,50.42842,3.95001
Charleroi,50.411359999999995,4.44448
Chapelle-lez-Herlaimont,50.4713,4.28227
Celles,50.71229,3.4573300000000002
Butgenbach,50.42689,6.20504
Bullange,50.407309999999995,6.25749
Buggenhout,51.0159,4.20173
Brussels,50.85045,4.3487800000000005
Brunehault,50.50524,4.4320900000000005
Brugge,51.20892,3.22424
Bree,51.14152,5.5969
Bredene,51.23489,2.97559
Brecht,51.35024,4.6382900000000005
Brasschaat,51.2912,4.49182
Braives,50.61745,5.13302
Braine-le-Comte,50.609790000000004,4.14658
Braine-le-Château,50.6799,4.27385
Braine-l'Alleud,50.68363,4.36784
Boutersem,50.83511,4.8345
Boussu,50.43417,3.7944
Bouillon,49.793240000000004,5.06703
Borsbeek,51.19661,4.48543
Bornem,51.097159999999995,4.24364
Borgloon,50.80505,5.34366
Boortmeerbeek,50.97929,4.57443
Boom,51.092420000000004,4.3717
Bonheiden,51.02261,4.54714
Boechout,51.15959,4.49195
Bocholt,51.17337,5.579940000000001
Blégny,50.67255,5.72508
Blankenberge,51.31306,3.13227
Binche,50.41155,4.16469
Bilzen,50.87325,5.5184
Bierbeek,50.828759999999996,4.75949
Beyne-Heusay,50.62251,5.665080000000001
Beveren,51.211870000000005,4.25633
Bertrix,49.855959999999996,5.25539
Bertem,50.86403,4.62918
Bernissart,50.4746,3.64961
Berlare,51.03333,4.0
Berlaar,51.1176,4.65835
Beringen,51.04954,5.2260599999999995
Beloeil,50.550470000000004,3.73484
Bekkevoort,50.940740000000005,4.968999999999999
Begijnendijk,51.019420000000004,4.78377
Beersel,50.76589,4.3002
Beerse,51.31927,4.85304
Beernem,51.13981,3.3389599999999997
Beauvechain,50.78195,4.7718
Beauraing,50.11042,4.95554
Beaumont,50.236990000000006,4.23926
Bastogne,50.00347,5.71844
Bassenge,50.758829999999996,5.60989
Basse Lasne,50.695029999999996,4.49218
Balen,51.16837,5.1702699999999995
Aywaille,50.474109999999996,5.67684
Awans,50.66774,5.46329
Avelgem,50.77618,3.4450199999999995
Aubange,49.566520000000004,5.80492
Ath,50.62937,3.7780099999999996
Assesse,50.36934,5.0220400000000005
Assenede,51.22598,3.75085
Asse,50.910109999999996,4.19836
As,51.00755,5.58453
Arlon,49.68333,5.816669999999999
Arendonk,51.32267,5.08289
Ardooie,50.9757,3.1973599999999998
Anzegem,50.836999999999996,3.4778599999999997
Antwerpen,51.21989,4.40346
Antoing,50.56765,3.4492
Ans,50.6623,5.52029
Anhée,50.310390000000005,4.87827
Anderlues,50.40704,4.27136
Andenne,50.48941,5.09513
Amblève,50.35357,6.17002
Amay,50.54829,5.309740000000001
Alken,50.87553,5.30558
Aiseau,50.41158,4.58671
Aartselaar,51.13412,4.38678
Aarschot,50.98715,4.83695
Aalter,51.09017,3.4469300000000005
Aalst,50.936040000000006,4.0355
Zorgo,12.24922,-0.61527
Ziniaré,12.58186,-1.2971
Yako,12.9591,-2.26075
Tougan,13.0725,-3.0694
Toma,12.75844,-2.89879
Titao,13.766670000000001,-2.0666700000000002
Tenkodogo,11.78,-0.36972
Salanso,12.17423,-4.08477
Réo,12.31963,-2.47094
Pô,11.16972,-1.145
Pitmoaga,12.23972,-1.87667
Pama,11.24972,0.7075
Ouargaye,11.50202,0.05886
Ouahigouya,13.58278,-2.42158
Ouagadougou,12.36566,-1.53388
Nouna,12.729389999999999,-3.86305
Manga,11.66361,-1.0730600000000001
Léo,11.10033,-2.1065400000000003
Koupéla,12.17864,-0.35103
Koudougou,12.25263,-2.36272
Kongoussi,13.325829999999998,-1.53472
Kombissiri,12.06095,-1.33355
Kokologo,12.18972,-1.88556
Kaya,13.09167,-1.08444
Houndé,11.5,-3.5166699999999995
Gourcy,13.20776,-2.35893
Goulouré,12.2276,-1.9292200000000002
Gorom-Gorom,14.4429,-0.23468000000000003
Garango,11.8,-0.55056
Fada N'gourma,12.06157,0.35843
Dori,14.0354,-0.0345
Djibo,14.0994,-1.62554
Diébougou,10.96209,-3.24967
Diapaga,12.07305,1.7883799999999999
Dédougou,12.46338,-3.46075
Dano,11.1464,-3.05784
Boussé,12.6576,-1.89288
Boulsa,12.66664,-0.5746899999999999
Boromo,11.74542,-2.9300599999999997
Bogandé,12.9704,-0.14953
Bobo-Dioulasso,11.17715,-4.2979
Batié,9.88333,-2.91667
Banfora,10.63333,-4.7666699999999995
Gaoua,10.29917,-3.25083
Orodara,10.94917,-4.93417
Beloslav,43.18333,27.7
Zlatograd,41.38333,25.1
Zlatitsa,42.71667,24.133329999999997
Yambol,42.48333,26.5
Yakoruda,42.02528,23.68417
Vŭrshets,43.19528,23.28611
Vŭlchedrŭm,43.69639,23.44472
Vratsa,43.21,23.5625
Vidin,43.99,22.8725
Vetovo,43.7,26.26667
Velingrad,42.02754,23.99155
Veliko Tŭrnovo,43.08124,25.62904
Varna,43.21667,27.91667
Tvŭrditsa,42.7,25.9
Tutrakan,44.05,26.616670000000003
Targovishte,43.2512,26.57215
Tryavna,42.86667,25.5
Troyan,42.89427,24.715889999999998
Topolovgrad,42.08333,26.33333
Dobrich,43.56667,27.83333
Teteven,42.91667,24.26667
Tervel,43.75,27.4
Svoge,42.96667,23.35
Svishtov,43.61959,25.35044
Svilengrad,41.76667,26.2
Sŭedinenie,42.26667,24.55
Strazhitsa,43.23333,25.96667
Straldzha,42.6,26.683329999999998
Stara Zagora,42.43278,25.641939999999998
Dupnitsa,42.26667,23.116670000000003
Stamboliyski,42.13333,24.53333
Sofia,42.69751,23.32415
Smolyan,41.58528,24.69194
Slivnitsa,42.85,23.03333
Sliven,42.685829999999996,26.32917
Simitli,41.88333,23.116670000000003
Simeonovgrad,42.03333,25.83333
Silistra,44.11667,27.26667
Shumen,43.27064,26.922859999999996
Sevlievo,43.02583,25.11361
Septemvri,42.21667,24.1
Sandanski,41.56667,23.28333
Samokov,42.336999999999996,23.5528
Ruse,43.856390000000005,25.97083
Razlog,41.8863,23.46714
Razgrad,43.53333,26.51667
Rakovski,42.3,24.96667
Rakitovo,41.98333,24.08333
Radomir,42.54444,22.95778
Radnevo,42.3,25.933329999999998
Provadiya,43.18333,27.433329999999998
Veliki Preslav,43.16667,26.816670000000002
Popovo,43.35,26.23333
Pomorie,42.558820000000004,27.643929999999997
Polski Trŭmbesh,43.38361,25.649720000000002
Plovdiv,42.15,24.75
Pleven,43.41667,24.616670000000003
Pirdop,42.7,24.183329999999998
Petrich,41.4,23.21667
Peshtera,42.03333,24.3
Perushtitsa,42.05,24.55
Pernik,42.6,23.03333
Pazardzhik,42.2,24.33333
Pavlikeni,43.242779999999996,25.321939999999998
Panagyurishte,42.5,24.183329999999998
Oryakhovo,43.73333,23.96667
Omurtag,43.1,26.41667
Novi Pazar,43.35,27.2
Nova Zagora,42.48333,26.01667
Nesebar,42.659209999999995,27.73602
Nedelino,41.45,25.08333
Montana,43.4125,23.225
Tsarevo,42.16955,27.845409999999998
Mezdra,43.15,23.7
Madan,41.5,24.95
Lyubimets,41.83333,26.08333
Lyaskovets,43.11111,25.72833
Lukovit,43.2,24.16667
Lovech,43.13333,24.71667
Lom,43.81389,23.23611
Levski,43.36667,25.133329999999997
Kyustendil,42.28389,22.691110000000002
Kŭrdzhali,41.65,25.366670000000003
Kubrat,43.8,26.5
Krumovgrad,41.46667,25.65
Krichim,42.05,24.46667
Kozloduy,43.78333,23.73333
Kotel,42.88333,26.45
Kostinbrod,42.81667,23.21667
Knezha,43.5,24.08333
Khisarya,42.5,24.7
Haskovo,41.93415,25.55557
Kharmanli,41.93333,25.9
Kazanlŭk,42.61667,25.4
Kavarna,43.43333,28.33333
Karnobat,42.65,26.98333
Karlovo,42.63333,24.8
Isperikh,43.71667,26.83333
Ikhtiman,42.43333,23.816670000000002
Gŭlŭbovo,42.13333,25.85
Sredets,42.34747,27.17898
Gotse Delchev,41.56667,23.73333
Gorna Oryakhovitsa,43.12778,25.70167
Godech,43.015,23.04417
Dolni Chiflik,42.98333,27.71667
General-Toshevo,43.7,28.03333
Gabrovo,42.87472,25.33417
Etropole,42.83333,24.0
Elkhovo,42.16667,26.566670000000002
Elin Pelin,42.66667,23.6
Elena,42.93333,25.883329999999997
Dulovo,43.81667,27.15
Dŭlgopol,43.05,27.35
Dryanovo,42.978970000000004,25.4785
Dolni Dŭbnik,43.4,24.433329999999998
Dimitrovgrad,42.05,25.6
Devnya,43.22222,27.569440000000004
Devin,41.74327,24.400029999999997
Chirpan,42.2,25.33333
Cherven Bryag,43.26667,24.1
Chepelare,41.73333,24.683329999999998
Byala Slatina,43.46667,23.933329999999998
Burgas,42.50606,27.467809999999997
Botevgrad,42.9,23.78333
Bobovdol,42.36972,23.017220000000002
Blagoevgrad,42.01667,23.1
Berkovitsa,43.23611,23.12583
Belogradchik,43.62722,22.68361
Belene,43.65,25.116670000000003
Bansko,41.8383,23.48851
Balchik,43.41667,28.16667
Aytos,42.7,27.25
Asenovgrad,42.01667,24.866670000000003
Aksakovo,43.25,27.816670000000002
Zlatni Pyasatsi,43.285,28.0418
Sitrah,26.15472,50.62056
Madīnat ‘Īsá,26.17361,50.547779999999996
Jidd Ḩafş,26.218609999999998,50.547779999999996
Madīnat Ḩamad,26.11528,50.50694
Dār Kulayb,26.06861,50.503890000000006
Al Muharraq,26.25722,50.611940000000004
Manama,26.215359999999997,50.5832
Al Ḩadd,26.245559999999998,50.65417
Ar Rifā‘,26.13,50.555
Makamba,-4.1348,29.804000000000002
Bururi,-3.9487699999999997,29.62438
Rumonge,-3.9736,29.4386
Mwaro,-3.5272,29.7034
Bujumbura,-3.3822,29.3644
Muramvya,-3.2682,29.6079
Gitega,-3.4264,29.9308
Ruyigi,-3.4763900000000003,30.24861
Cankuzo,-3.2186,30.5528
Karuzi,-3.10608,30.173509999999997
Bubanza,-3.0804,29.391
Cibitoke,-2.8869,29.1248
Ngozi,-2.9075,29.8306
Kayanza,-2.9221,29.6293
Muyinga,-2.8451,30.3414
Kirundo,-2.5845,30.0959
Rutana,-3.9279,29.991999999999997
Tchaourou,8.88649,2.59753
Tanguiéta,10.62118,1.26651
Savé,8.034239999999999,2.4866
Savalou,7.92807,1.97558
Sakété,6.73618,2.65866
Porto-Novo,6.49646,2.60359
Pobé,6.98008,2.6649
Parakou,9.33716,2.6303099999999997
Ouidah,6.36307,2.08506
Nikki,9.94009,3.21075
Natitingou,10.304160000000001,1.37962
Malanville,11.86819,3.3832699999999996
Lokossa,6.6386899999999995,1.7167400000000002
Kétou,7.36332,2.59978
Kandi,11.13417,2.9386099999999997
Hévié,6.41667,2.25
Guilmaro,10.56583,1.7244400000000002
Grand-Popo,6.28036,1.8225099999999999
Dogbo,6.816669999999999,1.7833299999999999
Djougou,9.70853,1.66598
Dassa-Zoumé,7.75,2.1833299999999998
Cové,7.2209699999999994,2.34017
Cotonou,6.36536,2.41833
Comé,6.40764,1.88198
Bohicon,7.178260000000001,2.0667
Bétérou,9.199160000000001,2.25855
Bembèrèkè,10.22827,2.66335
Bassila,9.00814,1.6654
Banikoara,11.29845,2.43856
Aplahoué,6.933330000000001,1.68333
Allada,6.66547,2.15138
Abomey-Calavi,6.448519999999999,2.35566
Abomey,7.182860000000001,1.9911900000000002
Gustavia,17.896179999999998,-62.84978
Hamilton,32.2949,-64.78303000000001
Tutong,4.8,114.65
Seria,4.60637,114.32476000000001
Kuala Belait,4.58361,114.2312
Bangar,4.71667,115.06667
Bandar Seri Begawan,4.94029,114.94806000000001
San Matías,-16.366670000000003,-58.4
Roboré,-18.33333,-59.75
Puerto Quijarro,-17.78333,-57.76667
Yacuiba,-22.01643,-63.677530000000004
Warnes,-17.5163,-63.16778000000001
Villazón,-22.08659,-65.59421999999999
Villa Yapacaní,-17.4,-63.833330000000004
Villamontes,-21.26235,-63.469030000000004
Vallegrande,-18.48923,-64.10609000000001
Uyuni,-20.459670000000003,-66.82503
Tupiza,-21.44345,-65.71875
Trinidad,-14.833329999999998,-64.9
Tarija,-21.53549,-64.72955999999999
Tarata,-17.60898,-66.02135
Sucre,-19.03332,-65.26274000000001
Santiago del Torno,-17.98674,-63.38118000000001
Santa Rosa del Sara,-17.10916,-63.59514
Santa Cruz de la Sierra,-17.78629,-63.181169999999995
San Pedro,-16.237170000000003,-68.85063000000001
San Julian,-17.78333,-62.86666999999999
San Ignacio de Velasco,-16.366670000000003,-60.95
San Borja,-14.816670000000002,-66.85
Rurrenabaque,-14.44125,-67.52781
Riberalta,-11.00654,-66.06312
Reyes,-14.2952,-67.33624
Punata,-17.54234,-65.83471999999999
Potosí,-19.58361,-65.75305999999999
Portachuelo,-17.351679999999998,-63.39281999999999
Patacamaya,-17.2358,-67.92169
Pailón,-17.65,-62.75
Oruro,-17.98333,-67.15
Montero,-17.33866,-63.2505
Monteagudo,-19.799889999999998,-63.954609999999995
Mizque,-17.941010000000002,-65.34016
Mineros,-17.11876,-63.231
Llallagua,-18.42426,-66.58388000000001
La Paz,-16.5,-68.15
La Bélgica,-17.55,-63.21666999999999
Huanuni,-18.289,-66.83583
Guayaramerín,-10.83676,-65.36135999999999
Cotoca,-17.816670000000002,-63.05
Concepción,-16.433329999999998,-60.9
Colchani,-20.3,-66.93333
Cochabamba,-17.3895,-66.1568
Cobija,-11.026710000000001,-68.76918
Cliza,-17.587770000000003,-65.93253
Chimoré,-16.94807,-65.14001999999999
Challapata,-18.902079999999998,-66.77048
Capinota,-17.711129999999997,-66.26082
Camiri,-20.03849,-63.518330000000006
Ascensión,-15.7,-63.083330000000004
Aiquile,-18.204079999999998,-65.18068000000001
Achacachi,-16.05,-68.68333
The Bottom,17.6259,-63.249190000000006
Oranjestad,17.48268,-62.98324
Kralendijk,12.15,-68.26666999999999
Vitorino Freire,-4.0423800000000005,-45.237770000000005
Vitória do Mearim,-3.46222,-44.87056
Vitória de Santo Antão,-8.11806,-35.29139
Viseu,-1.1966700000000001,-46.14
Conde,-7.25972,-34.9075
Vigia,-0.8583299999999999,-48.14167
Viçosa do Ceará,-3.5622199999999995,-41.092220000000005
Viçosa,-9.37139,-36.240829999999995
Vicência,-7.65694,-35.32667
Viana,-3.22028,-45.003609999999995
Várzea Alegre,-5.35,-40.38333
Varjota,-4.19444,-40.47667
Vargem Grande,-3.5430599999999997,-43.91583
Valença do Piauí,-6.4075,-41.74556
Urucurituba,-3.12845,-58.158559999999994
Uruçuí,-7.229439999999999,-44.55611
Urucará,-2.5363900000000004,-57.76
Uruburetama,-3.625,-39.50833
Urbano Santos,-3.20778,-43.40361
Upanema,-5.64194,-37.25778
União dos Palmares,-9.16278,-36.031940000000006
União,-4.5858300000000005,-42.86417
Umirim,-3.6772199999999997,-39.35028
Umarizal,-5.990559999999999,-37.814440000000005
Uiraúna,-6.518330000000001,-38.41222
Ubajara,-3.8544400000000003,-40.92111
Uauá,-9.841389999999999,-39.48167
Tutóia,-2.76194,-42.274440000000006
Turiaçu,-1.66333,-45.37167
Tupanatinga,-8.75333,-37.33972
Tuntum,-5.2580599999999995,-44.64889
Tucuruí,-3.76585,-49.67923
Tucumã,-0.18333,-50.05
Trindade,-7.761939999999999,-40.26778
Trairi,-3.2777800000000004,-39.26889
Traipu,-9.97056,-37.00333
Touros,-5.1988900000000005,-35.46083
Toritama,-8.00667,-36.056670000000004
Tomé Açu,-2.41889,-48.15222
Timon,-5.09417,-42.83667
Timbiras,-4.25528,-43.94056
Timbaúba,-7.50528,-35.318329999999996
Tianguá,-3.73222,-40.99167
Terra Santa,-2.10417,-56.486940000000004
Teresina,-5.089169999999999,-42.80194
Teixeira,-7.22278,-37.25417
São João dos Inhamuns,-6.0,-40.28333
Taquaritinga do Norte,-7.903060000000001,-36.04417
Taquarana,-9.645,-36.49722
Taperoá,-7.2075,-36.82667
Tangará,-6.19944,-35.80167
Tamboril,-4.8322199999999995,-40.32056
Tamandaré,-8.75632,-35.09995
Tabira,-7.59083,-37.53944
Surubim,-7.833060000000001,-35.75472
Sumé,-7.67167,-36.88
Sousa,-6.75917,-38.22806
Soure,-0.71667,-48.52333
Soledade,-7.05722,-36.36278
Solânea,-6.755,-35.54
Sobral,-3.6861099999999998,-40.34972
Sirinhaém,-8.59083,-35.11611
Simplício Mendes,-7.85389,-41.91028
Sertânia,-8.07361,-37.26444
Serra Talhada,-7.99194,-38.29833
Serra Branca,-6.53333,-38.26667
Senador Pompeu,-5.58806,-39.37167
Senador José Porfírio,-2.59083,-51.95417
Satuba,-9.56333,-35.82444
São Tomé,-5.9725,-36.07528
São Sebastião,-9.93361,-36.55417
São Raimundo Nonato,-9.01528,-42.69944
São Raimundo das Mangabeiras,-7.02194,-45.48111
São Pedro do Piauí,-5.9294400000000005,-42.71861
São Paulo do Potengi,-5.895,-35.76278
São Miguel do Tapuio,-5.50361,-41.32333
São Miguel dos Campos,-9.78111,-36.09361
São Miguel do Guamá,-1.62667,-47.48333
São Miguel,-5.46667,-35.36667
São Mateus do Maranhão,-4.04167,-44.475
São Luís do Quitunde,-9.31833,-35.56111
São Luís,-2.52972,-44.30278
São Lourenço da Mata,-8.00222,-35.01833
São José do Egito,-7.47889,-37.274440000000006
São José do Campestre,-6.31556,-35.71389
São José do Belmonte,-7.861389999999999,-38.75972
São José de Ribamar,-2.5619400000000003,-44.05417
São José de Piranhas,-7.12056,-38.501940000000005
São José de Mipibu,-6.07472,-35.23778
São José da Tapera,-9.55833,-37.38111
São José da Laje,-9.00972,-36.05833
São José da Coroa Grande,-8.897780000000001,-35.14778
São Joaquim do Monte,-8.4325,-35.80444
São João dos Patos,-6.495,-43.702220000000004
São João do Piauí,-8.35806,-42.24667
São João de Pirabas,-0.77472,-47.17722
São João,-8.87556,-36.36667
São Gonçalo do Amarante,-5.79333,-35.329440000000005
São Gonçalo do Amarante,-3.60722,-38.96833
São Geraldo do Araguaia,-6.40056,-48.555
São Félix do Xingu,-6.6447199999999995,-51.995
São Domingos do Maranhão,-5.575830000000001,-44.38528
São Caetano de Odivelas,-0.75,-48.02
São Bernardo,-3.36139,-42.41778
São Bento,-6.28333,-37.75
São Bento,-2.69583,-44.82139
São Benedito do Rio Preto,-3.3336099999999997,-43.52833
Santo Antônio do Tauá,-1.15194,-48.12944
Santo Antônio,-6.31056,-35.47889
Santa Rita,-7.11389,-34.97806
Santa Rita,-3.8635800000000002,-43.85999
Santarém,-2.44306,-54.708330000000004
Santa Quitéria do Maranhão,-3.51556,-42.54667
Santa Quitéria,-4.33194,-40.15667
Santana do Mundaú,-9.16806,-36.22222
Santana do Matos,-5.9575,-36.655559999999994
Santana do Ipanema,-9.37833,-37.24528
Santana do Acaraú,-3.4605599999999996,-40.21222
Santa Maria do Pará,-1.35028,-47.575559999999996
Santa Maria da Boa Vista,-8.807780000000001,-39.825559999999996
Santa Luzia,-7.64265,-47.21738
Santa Luzia,-6.8722199999999996,-36.91861
Santa Inês,-3.66667,-45.38
Santa Helena,-2.2311099999999997,-45.3
Santa Cruz do Capibaribe,-7.9575,-36.20472
Santa Cruz,-6.22944,-36.02278
Salinópolis,-0.61361,-47.35611
Salgueiro,-8.07417,-39.119170000000004
Russas,-4.9402800000000004,-37.97583
Rio Tinto,-6.80306,-35.08056
Rio Largo,-9.47833,-35.85333
Rio Formoso,-8.66877,-35.16277
Ribeirão,-8.514439999999999,-35.37778
Riachão,-7.36194,-46.61722
Reriutaba,-4.1416699999999995,-40.58222
Remígio,-6.946460000000001,-35.780390000000004
Regeneração,-6.2312199999999995,-42.68691
Redenção,-4.22583,-38.73056
Recife,-8.053889999999999,-34.88111
Raposa,-6.5166699999999995,-44.18333
Quixeré,-5.07417,-37.988609999999994
Quixeramobim,-5.19917,-39.29278
Quixadá,-4.97139,-39.01528
Quipapá,-8.82778,-36.01167
Quebrangulo,-9.31889,-36.471109999999996
Princesa Isabel,-7.736669999999999,-37.99333
Presidente Dutra,-5.29,-44.49
Prainha,-1.8,-53.48
Santana,-0.05832999999999999,-51.181670000000004
Porto Franco,-6.33833,-47.39917
Porto de Moz,-1.74833,-52.23833
Porto da Folha,-9.91722,-37.27833
Porto Calvo,-9.045,-35.39833
Porto,-3.89333,-42.71
Portel,-1.93556,-50.82111
Pombos,-8.14139,-35.39583
Pombal,-6.7702800000000005,-37.80167
Poço Branco,-5.6227800000000006,-35.66278
Pocinhos,-7.07667,-36.06111
Poção de Pedras,-4.66667,-44.85
Pitimbu,-7.470560000000001,-34.808609999999994
Pirpirituba,-6.78,-35.49861
Piripiri,-4.2733300000000005,-41.77694
Pirapemas,-3.72667,-44.22333
Piracuruca,-3.92806,-41.70917
Pio XII,-3.8325,-45.1525
Pinheiro,-2.5213900000000002,-45.0825
Pindaré Mirim,-3.6083300000000005,-45.34333
Pilar,-9.59722,-35.95667
Pilar,-7.26722,-35.26
Picuí,-6.51056,-36.346940000000004
Picos,-7.07694,-41.46694
Piancó,-7.198060000000001,-37.92917
Petrolina,-9.398610000000001,-40.50083
Jatobá,-9.183060000000001,-38.26889
Pesqueira,-8.35778,-36.69639
Pentecoste,-3.7927800000000005,-39.27028
Pendências,-5.26,-36.72222
Penalva,-3.29417,-45.17361
Pedro Velho,-6.43917,-35.22139
Pedro II,-4.42472,-41.45861
Pedras de Fogo,-7.40194,-35.11639
Pedra Branca,-5.4541699999999995,-39.717220000000005
Pedra,-8.496939999999999,-36.94083
Paulo Ramos,-4.21667,-45.18333
Paulo Afonso,-9.40611,-38.21472
Paulista,-7.94083,-34.873059999999995
Patu,-6.11,-37.63667
Patos,-7.024439999999999,-37.28
Pastos Bons,-6.6016699999999995,-44.07667
Passira,-7.995,-35.58056
Passagem Franca,-6.17972,-43.783609999999996
Parnarama,-5.6816699999999996,-43.09333
Parnamirim,-8.09056,-39.57833
Parnamirim,-5.91556,-35.26278
Parnaíba,-2.90472,-41.77667
Parintins,-2.62833,-56.73583000000001
Parelhas,-6.68778,-36.6575
Parambu,-6.21111,-40.69444
Paraipaba,-3.4394400000000003,-39.14833
Paraibano,-6.43306,-43.98361
Paragominas,-2.96667,-47.48333
Paracuru,-3.41,-39.030559999999994
Pão de Açúcar,-9.748330000000001,-37.43667
Palmares,-8.68333,-35.59167
Pacatuba,-3.9841699999999998,-38.62028
Pacajus,-4.1725,-38.46056
Ouricuri,-7.8825,-40.08167
Ourém,-1.5519399999999999,-47.11444
Orós,-6.24444,-38.91361
Orobó,-7.745,-35.60222
Oriximiná,-1.7655599999999998,-55.86611
Olinda,-8.00889,-34.85528
Oeiras do Pará,-2.00306,-49.854440000000004
Oeiras,-7.02528,-42.13111
Ocara,-4.49083,-38.59667
Ábidos,-1.9175,-55.51806
Novo Oriente,-5.53444,-40.77417
Novo Lino,-8.915,-35.64667
Nova Russas,-4.70667,-40.56306
Nova Olinda do Norte,-3.89174,-59.09542
